stop_id,stop_code,stop_name,stop_lat,stop_lon,stop_url
15,12449,"Sierra Hwy & West Milling St",34.696282,-118.136423,http://businfo.santa-clarita.com/RTT/Public/RoutePositionET.aspx?PlatformTag=15
17,12412,"10th St West & West Ave K-8",34.666847,-118.148343,http://businfo.santa-clarita.com/RTT/Public/RoutePositionET.aspx?PlatformTag=17
18,12408,"Transportation Center Dr & Clock Tower Plaza Dr",34.591332,-118.121148,http://businfo.santa-clarita.com/RTT/Public/RoutePositionET.aspx?PlatformTag=18
21,12420,"10th St West & Marketplace Dr",34.598622,-118.147491,http://businfo.santa-clarita.com/RTT/Public/RoutePositionET.aspx?PlatformTag=21
24,12431,"Gayley Ave & Strathmore Pl",34.068807,-118.449076,http://businfo.santa-clarita.com/RTT/Public/RoutePositionET.aspx?PlatformTag=24
25,12598,"Gayley Ave & Strathmore Pl",34.068186,-118.448870,http://businfo.santa-clarita.com/RTT/Public/RoutePositionET.aspx?PlatformTag=25
26,13491,"Le Conte Ave & Gayley Ave",34.063729,-118.447749,http://businfo.santa-clarita.com/RTT/Public/RoutePositionET.aspx?PlatformTag=26
27,12580,"Le Conte Ave & Gayley Ave",34.063577,-118.447828,http://businfo.santa-clarita.com/RTT/Public/RoutePositionET.aspx?PlatformTag=27
29,13458,"Westwood Blvd & Weyburn Ave",34.062407,-118.445238,http://businfo.santa-clarita.com/RTT/Public/RoutePositionET.aspx?PlatformTag=29
31,12567,"Glendon Ave & Wilshire Blvd",34.059114,-118.442129,http://businfo.santa-clarita.com/RTT/Public/RoutePositionET.aspx?PlatformTag=31
32,12579,"Westwood Blvd & Weyburn Ave",34.062661,-118.445499,http://businfo.santa-clarita.com/RTT/Public/RoutePositionET.aspx?PlatformTag=32
34,13489,"Wilshire Blvd & Sth Beverly Gln Blvd",34.066842,-118.429304,http://businfo.santa-clarita.com/RTT/Public/RoutePositionET.aspx?PlatformTag=34
35,12551,"Wilshire Blvd & Sth Beverly Gln Blvd",34.066690,-118.429001,http://businfo.santa-clarita.com/RTT/Public/RoutePositionET.aspx?PlatformTag=35
36,13404,"Santa Monica Blvd & Ave Of The Stars",34.061261,-118.417989,http://businfo.santa-clarita.com/RTT/Public/RoutePositionET.aspx?PlatformTag=36
37,13443,"Century Prk East & Santa Monica Blvd",34.062504,-118.415559,http://businfo.santa-clarita.com/RTT/Public/RoutePositionET.aspx?PlatformTag=37
38,13470,"Century Prk East & Constellation Blvd",34.061308,-118.414337,http://businfo.santa-clarita.com/RTT/Public/RoutePositionET.aspx?PlatformTag=38
39,13436,"Century Prk East & Constellation Blvd",34.060466,-118.413886,http://businfo.santa-clarita.com/RTT/Public/RoutePositionET.aspx?PlatformTag=39
40,13462,"Constellation Blvd & Ave Of The Stars",34.058857,-118.415391,http://businfo.santa-clarita.com/RTT/Public/RoutePositionET.aspx?PlatformTag=40
44,,"West 3rd St & Sth Flower St",34.054237,-118.253447,http://businfo.santa-clarita.com/RTT/Public/RoutePositionET.aspx?PlatformTag=44
45,12081,"Sth Hope St & West 1st St",34.056050,-118.250138,http://businfo.santa-clarita.com/RTT/Public/RoutePositionET.aspx?PlatformTag=45
46,11977,"Sth Hope St & West 1st St",34.056128,-118.249923,http://businfo.santa-clarita.com/RTT/Public/RoutePositionET.aspx?PlatformTag=46
47,12099,"West 1st St & Sth Hill St",34.054577,-118.246784,http://businfo.santa-clarita.com/RTT/Public/RoutePositionET.aspx?PlatformTag=47
48,11965,"West 1st St & Sth Hill St",34.054395,-118.246910,http://businfo.santa-clarita.com/RTT/Public/RoutePositionET.aspx?PlatformTag=48
50,12994,"Nth Main St & East Temple St",34.054258,-118.241359,http://businfo.santa-clarita.com/RTT/Public/RoutePositionET.aspx?PlatformTag=50
52,12023,"Nth Spring St & 2c",34.057435,-118.240435,http://businfo.santa-clarita.com/RTT/Public/RoutePositionET.aspx?PlatformTag=52
55,13427,"Constellation Blvd & Ave Of The Stars",34.058414,-118.416502,http://businfo.santa-clarita.com/RTT/Public/RoutePositionET.aspx?PlatformTag=55
56,13415,"Constellation Blvd",34.057009,-118.418551,http://businfo.santa-clarita.com/RTT/Public/RoutePositionET.aspx?PlatformTag=56
57,12987,"Nth Main St",34.057422,-118.238527,http://businfo.santa-clarita.com/RTT/Public/RoutePositionET.aspx?PlatformTag=57
59,12973,"Nth Alameda St & West College St",34.063223,-118.235633,http://businfo.santa-clarita.com/RTT/Public/RoutePositionET.aspx?PlatformTag=59
60,12034,"Nth Alameda St & West College",34.063236,-118.235958,http://businfo.santa-clarita.com/RTT/Public/RoutePositionET.aspx?PlatformTag=60
61,13064,"Nth Front St & West Magnolia Blvd",34.179510,-118.313216,http://businfo.santa-clarita.com/RTT/Public/RoutePositionET.aspx?PlatformTag=61
63,13101,"West Ave J & Genoa Ave",34.689322,-118.146778,http://businfo.santa-clarita.com/RTT/Public/RoutePositionET.aspx?PlatformTag=63
111,12215,"Burbank Blvd & Canoga Ave",34.173196,-118.596920,http://businfo.santa-clarita.com/RTT/Public/RoutePositionET.aspx?PlatformTag=111
113,18261,"Burbank Blvd",34.173421,-118.595316,http://businfo.santa-clarita.com/RTT/Public/RoutePositionET.aspx?PlatformTag=113
114,17403,"Burbank Blvd & Warner Center Ln",34.173214,-118.592196,http://businfo.santa-clarita.com/RTT/Public/RoutePositionET.aspx?PlatformTag=114
115,18257,"Burbank Blvd & Warner Center Ln",34.173432,-118.592398,http://businfo.santa-clarita.com/RTT/Public/RoutePositionET.aspx?PlatformTag=115
117,17442,"De Soto Ave & Burbank Blvd",34.173592,-118.588136,http://businfo.santa-clarita.com/RTT/Public/RoutePositionET.aspx?PlatformTag=117
118,12227,"Canoga Ave & Califa St",34.176874,-118.597585,http://businfo.santa-clarita.com/RTT/Public/RoutePositionET.aspx?PlatformTag=118
119,12197,"Canoga Ave & Califa St",34.176935,-118.597322,http://businfo.santa-clarita.com/RTT/Public/RoutePositionET.aspx?PlatformTag=119
120,12236,"Canoga Ave & Oxnard St",34.178964,-118.597602,http://businfo.santa-clarita.com/RTT/Public/RoutePositionET.aspx?PlatformTag=120
121,12184,"Canoga Ave & Oxnard St",34.179722,-118.597331,http://businfo.santa-clarita.com/RTT/Public/RoutePositionET.aspx?PlatformTag=121
122,18274,"De Soto Ave & Oxnard St",34.179495,-118.590605,http://businfo.santa-clarita.com/RTT/Public/RoutePositionET.aspx?PlatformTag=122
123,17435,"De Soto Ave & Oxnard St",34.179623,-118.590332,http://businfo.santa-clarita.com/RTT/Public/RoutePositionET.aspx?PlatformTag=123
124,17426,"De Soto Ave & Erwin St",34.182282,-118.590300,http://businfo.santa-clarita.com/RTT/Public/RoutePositionET.aspx?PlatformTag=124
125,18288,"De Soto Ave & Erwin St",34.182890,-118.590395,http://businfo.santa-clarita.com/RTT/Public/RoutePositionET.aspx?PlatformTag=125
126,12178,"Canoga Ave & Erwin St",34.182696,-118.597321,http://businfo.santa-clarita.com/RTT/Public/RoutePositionET.aspx?PlatformTag=126
127,12719,"Canoga Ave & Erwin St",34.183089,-118.597591,http://businfo.santa-clarita.com/RTT/Public/RoutePositionET.aspx?PlatformTag=127
128,12243,"Canoga Ave & Trillium Drwy",34.185171,-118.597321,http://businfo.santa-clarita.com/RTT/Public/RoutePositionET.aspx?PlatformTag=128
131,17419,"De Soto Ave & Victory Blvd",34.187999,-118.588331,http://businfo.santa-clarita.com/RTT/Public/RoutePositionET.aspx?PlatformTag=131
132,12735,"Victory Blvd",34.188229,-118.597863,http://businfo.santa-clarita.com/RTT/Public/RoutePositionET.aspx?PlatformTag=132
134,11036,"Topanga Canyon Blvd & Victory Blvd",34.187417,-118.605762,http://businfo.santa-clarita.com/RTT/Public/RoutePositionET.aspx?PlatformTag=134
136,12742,"Victory Blvd & Owensmouth Ave",34.187705,-118.601141,http://businfo.santa-clarita.com/RTT/Public/RoutePositionET.aspx?PlatformTag=136
137,11603,"De Soto Ave & Vanowen St",34.193409,-118.588589,http://businfo.santa-clarita.com/RTT/Public/RoutePositionET.aspx?PlatformTag=137
138,12393,"De Soto Ave & Vanowen St",34.194126,-118.588316,http://businfo.santa-clarita.com/RTT/Public/RoutePositionET.aspx?PlatformTag=138
139,10429,"Topanga Canyon Blvd & Sherman Wy",34.200569,-118.606099,http://businfo.santa-clarita.com/RTT/Public/RoutePositionET.aspx?PlatformTag=139
140,10401,"Topanga Canyon Blvd & Sherman Wy",34.201332,-118.605806,http://businfo.santa-clarita.com/RTT/Public/RoutePositionET.aspx?PlatformTag=140
141,11619,"De Soto Ave & Saticoy St",34.208035,-118.588617,http://businfo.santa-clarita.com/RTT/Public/RoutePositionET.aspx?PlatformTag=141
142,12386,"De Soto Ave & Saticoy St",34.208572,-118.588345,http://businfo.santa-clarita.com/RTT/Public/RoutePositionET.aspx?PlatformTag=142
144,12372,"De Soto Ave & Roscoe Blvd",34.220412,-118.588373,http://businfo.santa-clarita.com/RTT/Public/RoutePositionET.aspx?PlatformTag=144
145,10438,"Topanga Canyon Blvd & Roscoe Blvd",34.219164,-118.606128,http://businfo.santa-clarita.com/RTT/Public/RoutePositionET.aspx?PlatformTag=145
146,11027,"Topanga Canyon Blvd & Roscoe Blvd",34.220048,-118.605872,http://businfo.santa-clarita.com/RTT/Public/RoutePositionET.aspx?PlatformTag=146
147,11635,"De Soto Ave & Nordhoff St",34.235110,-118.588674,http://businfo.santa-clarita.com/RTT/Public/RoutePositionET.aspx?PlatformTag=147
148,12364,"De Soto Ave & Nordhoff St",34.235835,-118.588406,http://businfo.santa-clarita.com/RTT/Public/RoutePositionET.aspx?PlatformTag=148
150,12355,"De Soto Ave & Plummer St",34.243102,-118.588420,http://businfo.santa-clarita.com/RTT/Public/RoutePositionET.aspx?PlatformTag=150
151,11223,"De Soto Ave & Superior St",34.246515,-118.588692,http://businfo.santa-clarita.com/RTT/Public/RoutePositionET.aspx?PlatformTag=151
152,18634,"De Soto Ave & Superior St",34.246195,-118.588418,http://businfo.santa-clarita.com/RTT/Public/RoutePositionET.aspx?PlatformTag=152
153,11210,"De Soto Ave & Lassen St",34.249524,-118.588692,http://businfo.santa-clarita.com/RTT/Public/RoutePositionET.aspx?PlatformTag=153
154,18623,"De Soto Ave & Lassen St",34.250353,-118.588437,http://businfo.santa-clarita.com/RTT/Public/RoutePositionET.aspx?PlatformTag=154
155,10417,"Old Depot Plaza Rd & Lassen St",34.253401,-118.598986,http://businfo.santa-clarita.com/RTT/Public/RoutePositionET.aspx?PlatformTag=155
156,10440,"Old Depot Plaza Rd & Devonshire St",34.253739,-118.598829,http://businfo.santa-clarita.com/RTT/Public/RoutePositionET.aspx?PlatformTag=156
157,11234,"De Soto Ave & Devonshire St",34.256581,-118.588701,http://businfo.santa-clarita.com/RTT/Public/RoutePositionET.aspx?PlatformTag=157
158,18610,"De Soto Ave & Devonshire St",34.256474,-118.588435,http://businfo.santa-clarita.com/RTT/Public/RoutePositionET.aspx?PlatformTag=158
159,11004,"Gr Hill Dr & Pinto Pl",34.503568,-118.631020,http://businfo.santa-clarita.com/RTT/Public/RoutePositionET.aspx?PlatformTag=159
160,11015,"Royal Rd & Gr Hill Dr",34.501351,-118.628596,http://businfo.santa-clarita.com/RTT/Public/RoutePositionET.aspx?PlatformTag=160
161,17708,"Sloan Canyon Rd & Nares Dr",34.492847,-118.627578,http://businfo.santa-clarita.com/RTT/Public/RoutePositionET.aspx?PlatformTag=161
162,18545,"Parker Rd & Sloan Canyon Rd",34.489651,-118.628314,http://businfo.santa-clarita.com/RTT/Public/RoutePositionET.aspx?PlatformTag=162
163,17749,"Sloan Canyon Rd & The Old Rd",34.495362,-118.625084,http://businfo.santa-clarita.com/RTT/Public/RoutePositionET.aspx?PlatformTag=163
164,17731,"Lake Hughes Rd & Castaic Rd",34.496802,-118.622321,http://businfo.santa-clarita.com/RTT/Public/RoutePositionET.aspx?PlatformTag=164
165,17720,"Lake Hughes Rd & Diamond Ln",34.497491,-118.620223,http://businfo.santa-clarita.com/RTT/Public/RoutePositionET.aspx?PlatformTag=165
166,18532,"Parker Rd & Tobiah Pl",34.488951,-118.624909,http://businfo.santa-clarita.com/RTT/Public/RoutePositionET.aspx?PlatformTag=166
167,18521,"The Old Rd & Parker Rd",34.488707,-118.621321,http://businfo.santa-clarita.com/RTT/Public/RoutePositionET.aspx?PlatformTag=167
168,18183,"Parker Rd & The Old Rd",34.489054,-118.620863,http://businfo.santa-clarita.com/RTT/Public/RoutePositionET.aspx?PlatformTag=168
170,18165,"Ridge Route Rd & Violin Canyon Rd",34.494181,-118.616554,http://businfo.santa-clarita.com/RTT/Public/RoutePositionET.aspx?PlatformTag=170
171,18154,"Lake Hughes Rd & Ridge Route Rd",34.497522,-118.616811,http://businfo.santa-clarita.com/RTT/Public/RoutePositionET.aspx?PlatformTag=171
172,19278,"San Martinez Rd & Val Verde Rd",34.447069,-118.663724,http://businfo.santa-clarita.com/RTT/Public/RoutePositionET.aspx?PlatformTag=172
173,14631,"San Martinez Rd & Neuraschel St",34.445778,-118.660536,http://businfo.santa-clarita.com/RTT/Public/RoutePositionET.aspx?PlatformTag=173
175,14649,"San Martinez Rd & Chiquito Canyon Rd",34.445074,-118.657935,http://businfo.santa-clarita.com/RTT/Public/RoutePositionET.aspx?PlatformTag=175
176,11247,"Chiquito Canyon Rd",34.445692,-118.657702,http://businfo.santa-clarita.com/RTT/Public/RoutePositionET.aspx?PlatformTag=176
177,11206,"Del Valle Rd & Silver St",34.448242,-118.655550,http://businfo.santa-clarita.com/RTT/Public/RoutePositionET.aspx?PlatformTag=177
178,14608,"Del Valle Rd & Silver St",34.448595,-118.655240,http://businfo.santa-clarita.com/RTT/Public/RoutePositionET.aspx?PlatformTag=178
179,11043,"Del Valle Rd & Hasley Canyon Rd",34.456819,-118.641803,http://businfo.santa-clarita.com/RTT/Public/RoutePositionET.aspx?PlatformTag=179
180,13914,"Del Valle Rd & Hasley Canyon Rd",34.456905,-118.641464,http://businfo.santa-clarita.com/RTT/Public/RoutePositionET.aspx?PlatformTag=180
181,14801,"Chiquito Canyon Rd & Lincoln Ave",34.437901,-118.658324,http://businfo.santa-clarita.com/RTT/Public/RoutePositionET.aspx?PlatformTag=181
182,14612,"Chiquito Canyon Rd & Taft Ct",34.440654,-118.657298,http://businfo.santa-clarita.com/RTT/Public/RoutePositionET.aspx?PlatformTag=182
183,14974,"Chiquito Canyon Rd & Walnut Orchard Rd",34.420832,-118.657133,http://businfo.santa-clarita.com/RTT/Public/RoutePositionET.aspx?PlatformTag=183
184,18513,"The Old Rd & Hillcrest Pky",34.470684,-118.616766,http://businfo.santa-clarita.com/RTT/Public/RoutePositionET.aspx?PlatformTag=184
185,17712,"The Old Rd & Hillcrest Pky",34.470033,-118.616713,http://businfo.santa-clarita.com/RTT/Public/RoutePositionET.aspx?PlatformTag=185
186,18509,"Hasley Canyon Rd & Cambridge Ave",34.454733,-118.621809,http://businfo.santa-clarita.com/RTT/Public/RoutePositionET.aspx?PlatformTag=186
187,10589,"Hasley Canyon Rd & Cambridge Ave",34.455052,-118.620790,http://businfo.santa-clarita.com/RTT/Public/RoutePositionET.aspx?PlatformTag=187
188,18901,"Commerce Center Dr & Industry Dr",34.449126,-118.626386,http://businfo.santa-clarita.com/RTT/Public/RoutePositionET.aspx?PlatformTag=188
189,10570,"Commerce Center Dr & Live Oak Rd",34.448490,-118.626126,http://businfo.santa-clarita.com/RTT/Public/RoutePositionET.aspx?PlatformTag=189
190,16577,"Ave Williams & Livingston Ave",34.443388,-118.637157,http://businfo.santa-clarita.com/RTT/Public/RoutePositionET.aspx?PlatformTag=190
191,16565,"Witherspoon Pky & Ave Williams",34.447499,-118.635370,http://businfo.santa-clarita.com/RTT/Public/RoutePositionET.aspx?PlatformTag=191
192,16554,"Livingston Ave & Ave Sherman",34.443247,-118.634365,http://businfo.santa-clarita.com/RTT/Public/RoutePositionET.aspx?PlatformTag=192
193,15936,"Witherspoon Pky & Ave Sherman",34.446907,-118.632980,http://businfo.santa-clarita.com/RTT/Public/RoutePositionET.aspx?PlatformTag=193
194,16583,"Livingston Ave & Ave Paine",34.442917,-118.631645,http://businfo.santa-clarita.com/RTT/Public/RoutePositionET.aspx?PlatformTag=194
195,15904,"Witherspoon Pky & Ave Paine",34.445933,-118.629729,http://businfo.santa-clarita.com/RTT/Public/RoutePositionET.aspx?PlatformTag=195
196,16596,"Livingston Ave & Harrison Pky",34.440492,-118.626341,http://businfo.santa-clarita.com/RTT/Public/RoutePositionET.aspx?PlatformTag=196
197,18938,"Commerce Center Dr & Harrison Pky",34.440764,-118.624223,http://businfo.santa-clarita.com/RTT/Public/RoutePositionET.aspx?PlatformTag=197
198,10558,"Commerce Center Dr & Harrison Pky",34.441284,-118.624227,http://businfo.santa-clarita.com/RTT/Public/RoutePositionET.aspx?PlatformTag=198
199,18940,"Commerce Center Dr & Witherspoon Pky",34.445075,-118.626398,http://businfo.santa-clarita.com/RTT/Public/RoutePositionET.aspx?PlatformTag=199
200,10562,"Commerce Center Dr & Witherspoon Pky",34.445912,-118.626105,http://businfo.santa-clarita.com/RTT/Public/RoutePositionET.aspx?PlatformTag=200
201,18917,"Commerce Center Dr & Franklin Pky",34.438913,-118.622438,http://businfo.santa-clarita.com/RTT/Public/RoutePositionET.aspx?PlatformTag=201
202,10280,"Commerce Center Dr & Franklin Pky",34.439208,-118.622293,http://businfo.santa-clarita.com/RTT/Public/RoutePositionET.aspx?PlatformTag=202
203,10536,"Commerce Center Dr & Henry Mayo Dr",34.436361,-118.619264,http://businfo.santa-clarita.com/RTT/Public/RoutePositionET.aspx?PlatformTag=203
204,18929,"CA-126 & Henry Mayo Dr",34.435508,-118.617781,http://businfo.santa-clarita.com/RTT/Public/RoutePositionET.aspx?PlatformTag=204
205,15181,"Henry Mayo Dr & CA-126",34.434991,-118.619052,http://businfo.santa-clarita.com/RTT/Public/RoutePositionET.aspx?PlatformTag=205
206,10821,"Magic Mountain Pky",34.420215,-118.591664,http://businfo.santa-clarita.com/RTT/Public/RoutePositionET.aspx?PlatformTag=206
207,19459,"Off Feedmill Rd",34.427228,-118.600569,http://businfo.santa-clarita.com/RTT/Public/RoutePositionET.aspx?PlatformTag=207
208,17966,"Vanderbilt Wy & Westinghouse Pl",34.441951,-118.599939,http://businfo.santa-clarita.com/RTT/Public/RoutePositionET.aspx?PlatformTag=208
209,10515,"Ave Stanford & Vanderbilt Wy",34.440766,-118.599204,http://businfo.santa-clarita.com/RTT/Public/RoutePositionET.aspx?PlatformTag=209
210,17160,"Ave Stanford & Vanderbilt Wy",34.440504,-118.599093,http://businfo.santa-clarita.com/RTT/Public/RoutePositionET.aspx?PlatformTag=210
211,10543,"Ave Stanford & Technology Dr",34.439241,-118.596715,http://businfo.santa-clarita.com/RTT/Public/RoutePositionET.aspx?PlatformTag=211
212,,"Ave Stanford & Technology Dr",34.438366,-118.595883,http://businfo.santa-clarita.com/RTT/Public/RoutePositionET.aspx?PlatformTag=212
213,10504,"Ave Stanford & Ave Hall",34.437660,-118.594380,http://businfo.santa-clarita.com/RTT/Public/RoutePositionET.aspx?PlatformTag=213
214,17187,"Ave Stanford & Ave Hall",34.437121,-118.593739,http://businfo.santa-clarita.com/RTT/Public/RoutePositionET.aspx?PlatformTag=214
215,17194,"Ave Stanford & Huntington Ln",34.435682,-118.591600,http://businfo.santa-clarita.com/RTT/Public/RoutePositionET.aspx?PlatformTag=215
216,10320,"Ave Stanford & Huntington Ln",34.435830,-118.591453,http://businfo.santa-clarita.com/RTT/Public/RoutePositionET.aspx?PlatformTag=216
217,10907,"Ave Stanford & Rye Canyon Rd",34.433785,-118.588169,http://businfo.santa-clarita.com/RTT/Public/RoutePositionET.aspx?PlatformTag=217
218,10995,"Ave Stanford & Rye Canyon Rd",34.432825,-118.587209,http://businfo.santa-clarita.com/RTT/Public/RoutePositionET.aspx?PlatformTag=218
219,17156,"Rye Canyon Rd & Ave Stanford",34.432556,-118.586314,http://businfo.santa-clarita.com/RTT/Public/RoutePositionET.aspx?PlatformTag=219
220,10948,"Rye Canyon Rd & Ave Crocker",34.433946,-118.585230,http://businfo.santa-clarita.com/RTT/Public/RoutePositionET.aspx?PlatformTag=220
221,18005,"Rye Canyon Rd & Ave Crocker",34.434630,-118.583763,http://businfo.santa-clarita.com/RTT/Public/RoutePositionET.aspx?PlatformTag=221
222,10982,"Rye Canyon Rd & Beale Ct",34.436270,-118.580525,http://businfo.santa-clarita.com/RTT/Public/RoutePositionET.aspx?PlatformTag=222
223,18051,"Rye Canyon Rd & Beale Ct",34.436245,-118.579946,http://businfo.santa-clarita.com/RTT/Public/RoutePositionET.aspx?PlatformTag=223
224,10976,"Rye Canyon Rd & Ave Scott",34.437979,-118.577643,http://businfo.santa-clarita.com/RTT/Public/RoutePositionET.aspx?PlatformTag=224
225,19526,"Rye Canyon Rd & Ave Scott",34.437709,-118.577534,http://businfo.santa-clarita.com/RTT/Public/RoutePositionET.aspx?PlatformTag=225
226,10969,"Ave Scott & Ave Stanford",34.437077,-118.575038,http://businfo.santa-clarita.com/RTT/Public/RoutePositionET.aspx?PlatformTag=226
227,18067,"Ave Scott & Ave Stanford",34.436490,-118.574777,http://businfo.santa-clarita.com/RTT/Public/RoutePositionET.aspx?PlatformTag=227
228,10331,"Ave Scott & Ave Kearny",34.435199,-118.573031,http://businfo.santa-clarita.com/RTT/Public/RoutePositionET.aspx?PlatformTag=228
229,18079,"Ave Scott & Ave Kearny",34.434521,-118.572676,http://businfo.santa-clarita.com/RTT/Public/RoutePositionET.aspx?PlatformTag=229
230,11384,"Kelly Johnson Pky & Aurora Dr",34.445023,-118.578157,http://businfo.santa-clarita.com/RTT/Public/RoutePositionET.aspx?PlatformTag=230
231,17909,"Newhall Ranch Rd & Rye Canyon Rd",34.442152,-118.574123,http://businfo.santa-clarita.com/RTT/Public/RoutePositionET.aspx?PlatformTag=231
232,10308,"Copper Hill Dr & Kelly Johnson Pky",34.445451,-118.573383,http://businfo.santa-clarita.com/RTT/Public/RoutePositionET.aspx?PlatformTag=232
233,10694,"Alta Vista Ave & Constellation Rd",34.449340,-118.576675,http://businfo.santa-clarita.com/RTT/Public/RoutePositionET.aspx?PlatformTag=233
234,15414,"Copper Hill Dr & Decoro Dr",34.447676,-118.567810,http://businfo.santa-clarita.com/RTT/Public/RoutePositionET.aspx?PlatformTag=234
235,11366,"Decoro Dr & Copper Hill Dr",34.446745,-118.567745,http://businfo.santa-clarita.com/RTT/Public/RoutePositionET.aspx?PlatformTag=235
236,17604,"Wiley Canyon Rd & Calgrove Blvd",34.364717,-118.553352,http://businfo.santa-clarita.com/RTT/Public/RoutePositionET.aspx?PlatformTag=236
237,10799,"Calgrove Blvd",34.363363,-118.545679,http://businfo.santa-clarita.com/RTT/Public/RoutePositionET.aspx?PlatformTag=237
238,18972,"Calgrove Blvd & Ebelden Ave",34.363680,-118.545208,http://businfo.santa-clarita.com/RTT/Public/RoutePositionET.aspx?PlatformTag=238
239,10768,"Calgrove Blvd & Creekside Dr",34.364433,-118.541215,http://businfo.santa-clarita.com/RTT/Public/RoutePositionET.aspx?PlatformTag=239
240,10752,"Calgrove Blvd & Creekside Dr",34.364381,-118.540907,http://businfo.santa-clarita.com/RTT/Public/RoutePositionET.aspx?PlatformTag=240
241,17615,"Calgrove Blvd & Kalmar Ave",34.364460,-118.549522,http://businfo.santa-clarita.com/RTT/Public/RoutePositionET.aspx?PlatformTag=241
242,15446,"Calgrove Blvd & Kalmar Ave",34.363981,-118.548958,http://businfo.santa-clarita.com/RTT/Public/RoutePositionET.aspx?PlatformTag=242
243,16819,"Wiley Canyon Rd & Wabuska St",34.372524,-118.557522,http://businfo.santa-clarita.com/RTT/Public/RoutePositionET.aspx?PlatformTag=243
244,16045,"The Old Rd & Sagecrest Cir",34.377554,-118.567277,http://businfo.santa-clarita.com/RTT/Public/RoutePositionET.aspx?PlatformTag=244
245,16389,"The Old Rd & Chiquella Ln",34.377329,-118.566234,http://businfo.santa-clarita.com/RTT/Public/RoutePositionET.aspx?PlatformTag=245
246,15530,"Chiquella Ln",34.377500,-118.565802,http://businfo.santa-clarita.com/RTT/Public/RoutePositionET.aspx?PlatformTag=246
247,16362,"Chiquella Ln",34.378090,-118.566768,http://businfo.santa-clarita.com/RTT/Public/RoutePositionET.aspx?PlatformTag=247
248,16391,"Lyons Ave & Avenida Dorena",34.378563,-118.561509,http://businfo.santa-clarita.com/RTT/Public/RoutePositionET.aspx?PlatformTag=248
249,15524,"Lyons Ave",34.378216,-118.562116,http://businfo.santa-clarita.com/RTT/Public/RoutePositionET.aspx?PlatformTag=249
250,10734,"Wiley Canyon Rd & Evans Ave",34.376012,-118.557775,http://businfo.santa-clarita.com/RTT/Public/RoutePositionET.aspx?PlatformTag=250
251,11748,"Wiley Canyon Rd & Lyons Ave",34.378050,-118.558355,http://businfo.santa-clarita.com/RTT/Public/RoutePositionET.aspx?PlatformTag=251
252,11138,"Wiley Canyon Rd & Evans Ave",34.376606,-118.557691,http://businfo.santa-clarita.com/RTT/Public/RoutePositionET.aspx?PlatformTag=252
253,19923,"Lyons Ave & Wiley Canyon Rd",34.378673,-118.557767,http://businfo.santa-clarita.com/RTT/Public/RoutePositionET.aspx?PlatformTag=253
254,13086,"Lyons Ave & Wiley Canyon Rd",34.378885,-118.557918,http://businfo.santa-clarita.com/RTT/Public/RoutePositionET.aspx?PlatformTag=254
255,17555,"Lyons Ave & Peachland Ave",34.379244,-118.547609,http://businfo.santa-clarita.com/RTT/Public/RoutePositionET.aspx?PlatformTag=255
256,17586,"Lyons Ave & Avenida Rotella",34.379356,-118.545669,http://businfo.santa-clarita.com/RTT/Public/RoutePositionET.aspx?PlatformTag=256
257,19574,"Lyons Ave & Peachland Ave",34.379537,-118.546658,http://businfo.santa-clarita.com/RTT/Public/RoutePositionET.aspx?PlatformTag=257
258,17689,"Lyons Ave & Everett Dr",34.378950,-118.552728,http://businfo.santa-clarita.com/RTT/Public/RoutePositionET.aspx?PlatformTag=258
259,13072,"Lyons Ave & Avenida Entrana",34.379200,-118.552750,http://businfo.santa-clarita.com/RTT/Public/RoutePositionET.aspx?PlatformTag=259
260,17670,"Lyons Ave & De Wolfe Rd",34.378836,-118.554836,http://businfo.santa-clarita.com/RTT/Public/RoutePositionET.aspx?PlatformTag=260
261,17658,"Wiley Canyon Rd & Tournament Rd",34.382874,-118.556843,http://businfo.santa-clarita.com/RTT/Public/RoutePositionET.aspx?PlatformTag=261
262,17224,"Tournament Rd & Wiley Canyon Rd",34.383190,-118.556657,http://businfo.santa-clarita.com/RTT/Public/RoutePositionET.aspx?PlatformTag=262
263,17691,"Tournament Rd & Vista Hills Dr",34.384428,-118.557487,http://businfo.santa-clarita.com/RTT/Public/RoutePositionET.aspx?PlatformTag=263
264,16793,"The Old Rd & Pico Canyon Rd",34.380727,-118.570760,http://businfo.santa-clarita.com/RTT/Public/RoutePositionET.aspx?PlatformTag=264
265,16667,"The Old Rd & Pico Canyon Rd",34.380533,-118.571015,http://businfo.santa-clarita.com/RTT/Public/RoutePositionET.aspx?PlatformTag=265
266,16434,"The Old Rd & Constitution Ave",34.383227,-118.571195,http://businfo.santa-clarita.com/RTT/Public/RoutePositionET.aspx?PlatformTag=266
267,16679,"The Old Rd & Constitution Ave",34.383602,-118.571617,http://businfo.santa-clarita.com/RTT/Public/RoutePositionET.aspx?PlatformTag=267
268,19714,"Newhall Ave & Sierra Hwy",34.365852,-118.506810,http://businfo.santa-clarita.com/RTT/Public/RoutePositionET.aspx?PlatformTag=268
269,19073,"Newhall Ave & Sierra Hwy",34.366220,-118.507042,http://businfo.santa-clarita.com/RTT/Public/RoutePositionET.aspx?PlatformTag=269
270,17950,"Sierra Hwy & Newhall Ave",34.366201,-118.505880,http://businfo.santa-clarita.com/RTT/Public/RoutePositionET.aspx?PlatformTag=270
271,17984,"Newhall Ave & Meadow Ridge Dr",34.368279,-118.510982,http://businfo.santa-clarita.com/RTT/Public/RoutePositionET.aspx?PlatformTag=271
272,14432,"Newhall Ave & Judah Ln",34.369496,-118.512466,http://businfo.santa-clarita.com/RTT/Public/RoutePositionET.aspx?PlatformTag=272
273,14413,"Newhall Ave & Valle Del Oro",34.370778,-118.514558,http://businfo.santa-clarita.com/RTT/Public/RoutePositionET.aspx?PlatformTag=273
274,17978,"Newhall Ave & Silverado",34.370360,-118.514358,http://businfo.santa-clarita.com/RTT/Public/RoutePositionET.aspx?PlatformTag=274
275,14421,"Newhall Ave & Carl Ct",34.372300,-118.517008,http://businfo.santa-clarita.com/RTT/Public/RoutePositionET.aspx?PlatformTag=275
276,17881,"Newhall Ave & Pine St",34.374328,-118.521708,http://businfo.santa-clarita.com/RTT/Public/RoutePositionET.aspx?PlatformTag=276
277,14445,"Newhall Ave & Pine St",34.374622,-118.521730,http://businfo.santa-clarita.com/RTT/Public/RoutePositionET.aspx?PlatformTag=277
278,15199,"Sierra Hwy & Placerita Canyon Rd",34.378693,-118.493912,http://businfo.santa-clarita.com/RTT/Public/RoutePositionET.aspx?PlatformTag=278
279,18964,"Sierra Hwy & Placerita Canyon Rd",34.378416,-118.493789,http://businfo.santa-clarita.com/RTT/Public/RoutePositionET.aspx?PlatformTag=279
280,14409,"Sierra Hwy & Dockweiler Dr",34.372340,-118.500284,http://businfo.santa-clarita.com/RTT/Public/RoutePositionET.aspx?PlatformTag=280
281,17997,"Sierra Hwy & Dockweiler Dr",34.371785,-118.500364,http://businfo.santa-clarita.com/RTT/Public/RoutePositionET.aspx?PlatformTag=281
282,17269,"Newhall Ave & 8th St",34.378090,-118.530343,http://businfo.santa-clarita.com/RTT/Public/RoutePositionET.aspx?PlatformTag=282
283,,"Market St & Walnut St",34.378201,-118.528431,http://businfo.santa-clarita.com/RTT/Public/RoutePositionET.aspx?PlatformTag=283
284,13869,"Railroad Ave & 5th St",34.377312,-118.525367,http://businfo.santa-clarita.com/RTT/Public/RoutePositionET.aspx?PlatformTag=284
285,17899,"Railroad Ave & 6th St",34.378075,-118.526450,http://businfo.santa-clarita.com/RTT/Public/RoutePositionET.aspx?PlatformTag=285
286,13310,"Railroad Ave & Market St",34.378829,-118.526883,http://businfo.santa-clarita.com/RTT/Public/RoutePositionET.aspx?PlatformTag=286
288,11898,"Railroad Ave & Market St",34.379430,-118.527348,http://businfo.santa-clarita.com/RTT/Public/RoutePositionET.aspx?PlatformTag=288
290,13853,"Railroad Ave & 8th St",34.379937,-118.527608,http://businfo.santa-clarita.com/RTT/Public/RoutePositionET.aspx?PlatformTag=290
291,17211,"Lyons Ave & Apple St",34.379772,-118.542853,http://businfo.santa-clarita.com/RTT/Public/RoutePositionET.aspx?PlatformTag=291
292,19910,"Lyons Ave & Apple St",34.379544,-118.542721,http://businfo.santa-clarita.com/RTT/Public/RoutePositionET.aspx?PlatformTag=292
293,19934,"Lyons Ave & Valley St",34.379687,-118.540252,http://businfo.santa-clarita.com/RTT/Public/RoutePositionET.aspx?PlatformTag=293
294,19590,"Lyons Ave & Orchard Village Rd",34.379856,-118.541288,http://businfo.santa-clarita.com/RTT/Public/RoutePositionET.aspx?PlatformTag=294
295,11880,"Orchard Village Rd & Lyons Ave",34.380420,-118.540901,http://businfo.santa-clarita.com/RTT/Public/RoutePositionET.aspx?PlatformTag=295
296,17295,"Lyons Ave & Wayman St",34.380041,-118.538434,http://businfo.santa-clarita.com/RTT/Public/RoutePositionET.aspx?PlatformTag=296
297,17564,"Lyons Ave & Wayman St",34.379843,-118.537680,http://businfo.santa-clarita.com/RTT/Public/RoutePositionET.aspx?PlatformTag=297
298,17276,"Lyons Ave & Main St",34.381299,-118.530499,http://businfo.santa-clarita.com/RTT/Public/RoutePositionET.aspx?PlatformTag=298
299,11931,"Lyons Ave & Newhall Ave",34.380082,-118.533299,http://businfo.santa-clarita.com/RTT/Public/RoutePositionET.aspx?PlatformTag=299
300,17282,"Lyons Ave & Newhall Ave",34.380322,-118.533587,http://businfo.santa-clarita.com/RTT/Public/RoutePositionET.aspx?PlatformTag=300
301,16358,"Newhall Ave & 11th St",34.380510,-118.533358,http://businfo.santa-clarita.com/RTT/Public/RoutePositionET.aspx?PlatformTag=301
302,17016,"Newhall Ave & 11th St",34.380942,-118.533464,http://businfo.santa-clarita.com/RTT/Public/RoutePositionET.aspx?PlatformTag=302
303,18300,"Newhall Ave & 13th St",34.382098,-118.534349,http://businfo.santa-clarita.com/RTT/Public/RoutePositionET.aspx?PlatformTag=303
304,16370,"Newhall Ave & 13th St",34.382455,-118.534800,http://businfo.santa-clarita.com/RTT/Public/RoutePositionET.aspx?PlatformTag=304
305,18986,"Pico Canyon Rd & Constitution Ave",34.381900,-118.576200,http://businfo.santa-clarita.com/RTT/Public/RoutePositionET.aspx?PlatformTag=305
306,11711,"Pico Canyon Rd & Constitution Ave",34.381703,-118.575963,http://businfo.santa-clarita.com/RTT/Public/RoutePositionET.aspx?PlatformTag=306
307,18815,"Stevenson Ranch Pky & Poe Pky",34.381607,-118.584391,http://businfo.santa-clarita.com/RTT/Public/RoutePositionET.aspx?PlatformTag=307
308,16651,"Stevenson Ranch Pky",34.382497,-118.583641,http://businfo.santa-clarita.com/RTT/Public/RoutePositionET.aspx?PlatformTag=308
309,16963,"Stevenson Ranch Pky & Chisom Ln",34.383910,-118.582098,http://businfo.santa-clarita.com/RTT/Public/RoutePositionET.aspx?PlatformTag=309
310,15989,"Poe Pky & Keats Ln",34.382279,-118.585143,http://businfo.santa-clarita.com/RTT/Public/RoutePositionET.aspx?PlatformTag=310
311,15962,"Poe Pky & Franklin Ln",34.383243,-118.592381,http://businfo.santa-clarita.com/RTT/Public/RoutePositionET.aspx?PlatformTag=311
312,15958,"Hemingway Ave & Wilde Ave",34.385657,-118.591688,http://businfo.santa-clarita.com/RTT/Public/RoutePositionET.aspx?PlatformTag=312
313,15991,"Faulkner Dr & Christie Ct",34.386927,-118.591140,http://businfo.santa-clarita.com/RTT/Public/RoutePositionET.aspx?PlatformTag=313
314,16032,"Faulkner Dr & Hood Wy",34.388617,-118.593379,http://businfo.santa-clarita.com/RTT/Public/RoutePositionET.aspx?PlatformTag=314
315,16009,"Faulkner Dr & Thurber Wy",34.390261,-118.596047,http://businfo.santa-clarita.com/RTT/Public/RoutePositionET.aspx?PlatformTag=315
316,16021,"Faulkner Dr & Forsythe Wy",34.390641,-118.597991,http://businfo.santa-clarita.com/RTT/Public/RoutePositionET.aspx?PlatformTag=316
317,16013,"Faulkner Dr & Burke Pl",34.391422,-118.599979,http://businfo.santa-clarita.com/RTT/Public/RoutePositionET.aspx?PlatformTag=317
318,15511,"Mallory Dr & Waycott Wy",34.393680,-118.599217,http://businfo.santa-clarita.com/RTT/Public/RoutePositionET.aspx?PlatformTag=318
319,15548,"Mallory Dr & Peacock Pl",34.395812,-118.597280,http://businfo.santa-clarita.com/RTT/Public/RoutePositionET.aspx?PlatformTag=319
320,15507,"Kavenaugh Ln & Carroll Ln",34.395179,-118.595195,http://businfo.santa-clarita.com/RTT/Public/RoutePositionET.aspx?PlatformTag=320
321,15737,"Kavenaugh Ln & Twain Pl",34.392919,-118.590360,http://businfo.santa-clarita.com/RTT/Public/RoutePositionET.aspx?PlatformTag=321
322,15744,"Kavenaugh Ln & Hemingway Ave",34.390903,-118.588576,http://businfo.santa-clarita.com/RTT/Public/RoutePositionET.aspx?PlatformTag=322
323,15700,"Hemingway Ave & London Pl",34.391037,-118.587380,http://businfo.santa-clarita.com/RTT/Public/RoutePositionET.aspx?PlatformTag=323
324,15716,"Hemingway Ave & Anderson Ln",34.391080,-118.584859,http://businfo.santa-clarita.com/RTT/Public/RoutePositionET.aspx?PlatformTag=324
325,16764,"Hemingway Ave & Stevenson Ranch Pky",34.387424,-118.580507,http://businfo.santa-clarita.com/RTT/Public/RoutePositionET.aspx?PlatformTag=325
326,15479,"Stevenson Ranch Pky & Hemingway Ave",34.386847,-118.580111,http://businfo.santa-clarita.com/RTT/Public/RoutePositionET.aspx?PlatformTag=326
327,15498,"Stevenson Ranch Pky & Steinbeck Ave",34.390417,-118.578489,http://businfo.santa-clarita.com/RTT/Public/RoutePositionET.aspx?PlatformTag=327
328,15480,"Stevenson Ranch Pky & The Old Rd",34.392536,-118.576003,http://businfo.santa-clarita.com/RTT/Public/RoutePositionET.aspx?PlatformTag=328
329,16410,"Stevenson Ranch Pky & Holmes Pl",34.391251,-118.578064,http://businfo.santa-clarita.com/RTT/Public/RoutePositionET.aspx?PlatformTag=329
330,16406,"Stevenson Ranch Pky & The Old Rd",34.393237,-118.575315,http://businfo.santa-clarita.com/RTT/Public/RoutePositionET.aspx?PlatformTag=330
331,15467,"The Old Rd & Stevenson Ranch Pky",34.390953,-118.573789,http://businfo.santa-clarita.com/RTT/Public/RoutePositionET.aspx?PlatformTag=331
332,16772,"The Old Rd & Steinbeck Ave",34.390264,-118.573240,http://businfo.santa-clarita.com/RTT/Public/RoutePositionET.aspx?PlatformTag=332
333,16698,"The Old Rd & Steinbeck Ave",34.389473,-118.573263,http://businfo.santa-clarita.com/RTT/Public/RoutePositionET.aspx?PlatformTag=333
334,16755,"The Old Rd & Steinbeck Ave",34.387904,-118.572559,http://businfo.santa-clarita.com/RTT/Public/RoutePositionET.aspx?PlatformTag=334
335,16680,"The Old Rd & Steinbeck Ave",34.387267,-118.572732,http://businfo.santa-clarita.com/RTT/Public/RoutePositionET.aspx?PlatformTag=335
336,16786,"The Old Rd & Constitution Ave",34.386051,-118.572074,http://businfo.santa-clarita.com/RTT/Public/RoutePositionET.aspx?PlatformTag=336
337,16423,"The Old Rd & Constitution Ave",34.384592,-118.571613,http://businfo.santa-clarita.com/RTT/Public/RoutePositionET.aspx?PlatformTag=337
338,18407,"Valencia Blvd",34.401007,-118.596450,http://businfo.santa-clarita.com/RTT/Public/RoutePositionET.aspx?PlatformTag=338
339,,"Valencia Blvd & Old Rock Rd",34.402172,-118.594240,http://businfo.santa-clarita.com/RTT/Public/RoutePositionET.aspx?PlatformTag=339
340,10809,"The Old Rd & Silver Aspen Wy",34.409546,-118.579670,http://businfo.santa-clarita.com/RTT/Public/RoutePositionET.aspx?PlatformTag=340
341,11544,"The Old Rd & Silver Aspen Wy",34.409308,-118.579347,http://businfo.santa-clarita.com/RTT/Public/RoutePositionET.aspx?PlatformTag=341
342,11753,"The Old Rd & Magic Mountain Pky",34.419507,-118.582372,http://businfo.santa-clarita.com/RTT/Public/RoutePositionET.aspx?PlatformTag=342
343,17230,"Tournament Rd & Vista Hills Dr",34.384890,-118.557267,http://businfo.santa-clarita.com/RTT/Public/RoutePositionET.aspx?PlatformTag=343
344,17823,"Tournament Rd & Oak Vale Dr",34.386769,-118.557573,http://businfo.santa-clarita.com/RTT/Public/RoutePositionET.aspx?PlatformTag=344
345,17248,"Tournament Rd & Oak Vale Dr",34.387268,-118.557663,http://businfo.santa-clarita.com/RTT/Public/RoutePositionET.aspx?PlatformTag=345
346,17810,"Tournament Rd & Trevino Dr",34.388412,-118.558410,http://businfo.santa-clarita.com/RTT/Public/RoutePositionET.aspx?PlatformTag=346
347,17593,"Tournament Rd & Trevino Dr",34.388853,-118.558585,http://businfo.santa-clarita.com/RTT/Public/RoutePositionET.aspx?PlatformTag=347
348,17346,"Tournament Rd & Golf Course Rd",34.390177,-118.558960,http://businfo.santa-clarita.com/RTT/Public/RoutePositionET.aspx?PlatformTag=348
349,18597,"Tournament Rd & Golf Course Rd",34.390521,-118.559193,http://businfo.santa-clarita.com/RTT/Public/RoutePositionET.aspx?PlatformTag=349
350,17305,"Tournament Rd & Golfview Dr",34.390874,-118.561641,http://businfo.santa-clarita.com/RTT/Public/RoutePositionET.aspx?PlatformTag=350
351,17207,"Tournament Rd & Golfview Dr",34.391908,-118.562615,http://businfo.santa-clarita.com/RTT/Public/RoutePositionET.aspx?PlatformTag=351
352,16499,"Dalbey Dr & Orchard Village Rd",34.385149,-118.543523,http://businfo.santa-clarita.com/RTT/Public/RoutePositionET.aspx?PlatformTag=352
353,16327,"Dalbey Dr & Avenida Balita",34.385137,-118.543292,http://businfo.santa-clarita.com/RTT/Public/RoutePositionET.aspx?PlatformTag=353
354,18328,"Dalbey Dr & Avenida Ignacio",34.386556,-118.541408,http://businfo.santa-clarita.com/RTT/Public/RoutePositionET.aspx?PlatformTag=354
355,19820,"Orchard Village Rd & Avenida Ronada",34.387745,-118.545908,http://businfo.santa-clarita.com/RTT/Public/RoutePositionET.aspx?PlatformTag=355
356,16481,"Orchard Village Rd & 16th St",34.388083,-118.545888,http://businfo.santa-clarita.com/RTT/Public/RoutePositionET.aspx?PlatformTag=356
357,17875,"Railroad Ave & 13th St",34.384080,-118.530976,http://businfo.santa-clarita.com/RTT/Public/RoutePositionET.aspx?PlatformTag=357
358,13895,"Railroad Ave & 13th St",34.384274,-118.530809,http://businfo.santa-clarita.com/RTT/Public/RoutePositionET.aspx?PlatformTag=358
359,17868,"Railroad Ave & 15th St",34.388399,-118.534305,http://businfo.santa-clarita.com/RTT/Public/RoutePositionET.aspx?PlatformTag=359
360,13876,"Railroad Ave & 15th St",34.388600,-118.534138,http://businfo.santa-clarita.com/RTT/Public/RoutePositionET.aspx?PlatformTag=360
361,16336,"Newhall Ave & 14th St",34.383907,-118.536014,http://businfo.santa-clarita.com/RTT/Public/RoutePositionET.aspx?PlatformTag=361
362,18344,"Newhall Ave & 14th St",34.384109,-118.536002,http://businfo.santa-clarita.com/RTT/Public/RoutePositionET.aspx?PlatformTag=362
363,16304,"Newhall Ave & 15th St",34.386017,-118.537772,http://businfo.santa-clarita.com/RTT/Public/RoutePositionET.aspx?PlatformTag=363
364,18337,"Newhall Ave & 15th St",34.386175,-118.537730,http://businfo.santa-clarita.com/RTT/Public/RoutePositionET.aspx?PlatformTag=364
365,18316,"Dalbey Dr & Newhall Ave",34.387587,-118.539631,http://businfo.santa-clarita.com/RTT/Public/RoutePositionET.aspx?PlatformTag=365
366,16315,"Dalbey Dr & Newhall Ave",34.387554,-118.539403,http://businfo.santa-clarita.com/RTT/Public/RoutePositionET.aspx?PlatformTag=366
367,19808,"Orchard Village Rd & Wiley Canyon Rd",34.389500,-118.547444,http://businfo.santa-clarita.com/RTT/Public/RoutePositionET.aspx?PlatformTag=367
368,18955,"Orchard Village Rd & Wiley Canyon Rd",34.389713,-118.547279,http://businfo.santa-clarita.com/RTT/Public/RoutePositionET.aspx?PlatformTag=368
369,16447,"Orchard Village Rd & Mill Valley Rd",34.392687,-118.550382,http://businfo.santa-clarita.com/RTT/Public/RoutePositionET.aspx?PlatformTag=369
370,16343,"Orchard Village Rd & McBean Pky",34.395751,-118.552814,http://businfo.santa-clarita.com/RTT/Public/RoutePositionET.aspx?PlatformTag=370
371,16475,"McBean Pky & Orchard Village Rd",34.396527,-118.552602,http://businfo.santa-clarita.com/RTT/Public/RoutePositionET.aspx?PlatformTag=371
373,13882,"Railroad Ave & Oak Ridge Dr",34.400980,-118.538533,http://businfo.santa-clarita.com/RTT/Public/RoutePositionET.aspx?PlatformTag=373
374,17322,"Tournament Rd & McBean Pky",34.394090,-118.565121,http://businfo.santa-clarita.com/RTT/Public/RoutePositionET.aspx?PlatformTag=374
375,18584,"Tournament Rd & McBean Pky",34.394551,-118.564986,http://businfo.santa-clarita.com/RTT/Public/RoutePositionET.aspx?PlatformTag=375
376,17333,"Rockwell Canyon Rd",34.396313,-118.565454,http://businfo.santa-clarita.com/RTT/Public/RoutePositionET.aspx?PlatformTag=376
377,18578,"Rockwell Canyon Rd & Summit Pl",34.396158,-118.565165,http://businfo.santa-clarita.com/RTT/Public/RoutePositionET.aspx?PlatformTag=377
378,18550,"Rockwell Canyon Rd",34.401382,-118.566552,http://businfo.santa-clarita.com/RTT/Public/RoutePositionET.aspx?PlatformTag=378
379,,"Rockwell Canyon Rd",34.404556,-118.566775,http://businfo.santa-clarita.com/RTT/Public/RoutePositionET.aspx?PlatformTag=379
380,16468,"McBean Pky & Avenida Navarre",34.398784,-118.551073,http://businfo.santa-clarita.com/RTT/Public/RoutePositionET.aspx?PlatformTag=380
381,16861,"McBean Pky",34.399689,-118.551181,http://businfo.santa-clarita.com/RTT/Public/RoutePositionET.aspx?PlatformTag=381
382,16857,"McBean Pky & Arroyo Prk Dr",34.402493,-118.551724,http://businfo.santa-clarita.com/RTT/Public/RoutePositionET.aspx?PlatformTag=382
383,16614,"McBean Pky & Arroyo Prk Dr",34.403253,-118.551822,http://businfo.santa-clarita.com/RTT/Public/RoutePositionET.aspx?PlatformTag=383
384,19284,"McBean Pky & Arroyo Prk Dr",34.404278,-118.553075,http://businfo.santa-clarita.com/RTT/Public/RoutePositionET.aspx?PlatformTag=384
385,10813,"Tourney Rd & Wayne Mills Pl",34.422372,-118.579587,http://businfo.santa-clarita.com/RTT/Public/RoutePositionET.aspx?PlatformTag=385
386,11769,"Tourney Rd & Wayne Mills Pl",34.421726,-118.579424,http://businfo.santa-clarita.com/RTT/Public/RoutePositionET.aspx?PlatformTag=386
387,10832,"Tourney Rd",34.419750,-118.578543,http://businfo.santa-clarita.com/RTT/Public/RoutePositionET.aspx?PlatformTag=387
388,16992,"Magic Mountain Pky & Avignon Dr",34.422345,-118.570041,http://businfo.santa-clarita.com/RTT/Public/RoutePositionET.aspx?PlatformTag=388
389,16959,"Magic Mountain Pky & Avignon Dr",34.421774,-118.569441,http://businfo.santa-clarita.com/RTT/Public/RoutePositionET.aspx?PlatformTag=389
390,16971,"Magic Mountain Pky & Town Center Dr",34.420912,-118.565486,http://businfo.santa-clarita.com/RTT/Public/RoutePositionET.aspx?PlatformTag=390
391,16738,"Magic Mountain Pky & Wayne Mills Pl",34.423894,-118.578414,http://businfo.santa-clarita.com/RTT/Public/RoutePositionET.aspx?PlatformTag=391
392,10845,"Tourney Rd",34.416192,-118.576019,http://businfo.santa-clarita.com/RTT/Public/RoutePositionET.aspx?PlatformTag=392
393,11690,"Tourney Rd",34.415841,-118.576072,http://businfo.santa-clarita.com/RTT/Public/RoutePositionET.aspx?PlatformTag=393
394,10192,"Tourney Rd & Springfield Ct",34.414486,-118.574314,http://businfo.santa-clarita.com/RTT/Public/RoutePositionET.aspx?PlatformTag=394
395,11688,"Tourney Rd & Springfield Ct",34.414283,-118.574270,http://businfo.santa-clarita.com/RTT/Public/RoutePositionET.aspx?PlatformTag=395
396,10185,"Tourney Rd & Springfield Ct",34.412261,-118.573650,http://businfo.santa-clarita.com/RTT/Public/RoutePositionET.aspx?PlatformTag=396
397,10171,"Valencia Blvd",34.409080,-118.570074,http://businfo.santa-clarita.com/RTT/Public/RoutePositionET.aspx?PlatformTag=397
398,10214,"Valencia Blvd & Rockwell Canyon Rd",34.408552,-118.568141,http://businfo.santa-clarita.com/RTT/Public/RoutePositionET.aspx?PlatformTag=398
399,,"Rockwell Canyon Rd & Valencia Blvd",34.408493,-118.567818,http://businfo.santa-clarita.com/RTT/Public/RoutePositionET.aspx?PlatformTag=399
400,10163,"Valencia Blvd & Goldcrest Dr",34.410239,-118.565594,http://businfo.santa-clarita.com/RTT/Public/RoutePositionET.aspx?PlatformTag=400
401,14817,"Valencia Blvd & McBean Pky",34.413310,-118.561627,http://businfo.santa-clarita.com/RTT/Public/RoutePositionET.aspx?PlatformTag=401
413,16890,"McBean Pky & Valencia Blvd",34.412477,-118.559802,http://businfo.santa-clarita.com/RTT/Public/RoutePositionET.aspx?PlatformTag=413
414,10591,"Valencia Blvd",34.412985,-118.557960,http://businfo.santa-clarita.com/RTT/Public/RoutePositionET.aspx?PlatformTag=414
415,10233,"Valencia Blvd & Goldcrest Dr",34.411177,-118.564471,http://businfo.santa-clarita.com/RTT/Public/RoutePositionET.aspx?PlatformTag=415
416,12837,"McBean Pky & Gamble House Ct",34.407037,-118.555024,http://businfo.santa-clarita.com/RTT/Public/RoutePositionET.aspx?PlatformTag=416
417,16874,"McBean Pky & Gamble House Ct",34.407715,-118.555968,http://businfo.santa-clarita.com/RTT/Public/RoutePositionET.aspx?PlatformTag=417
418,16888,"McBean Pky & Del Monte Dr",34.409851,-118.557739,http://businfo.santa-clarita.com/RTT/Public/RoutePositionET.aspx?PlatformTag=418
419,16195,"McBean Pky & Del Monte Dr",34.410954,-118.558360,http://businfo.santa-clarita.com/RTT/Public/RoutePositionET.aspx?PlatformTag=419
420,10298,"Railroad Ave & Drayton St",34.410922,-118.540664,http://businfo.santa-clarita.com/RTT/Public/RoutePositionET.aspx?PlatformTag=420
421,15168,"Railroad Ave & Drayton St",34.410935,-118.540377,http://businfo.santa-clarita.com/RTT/Public/RoutePositionET.aspx?PlatformTag=421
423,15175,"Magic Mountain Pky & Bouquet Canyon Rd",34.413806,-118.541619,http://businfo.santa-clarita.com/RTT/Public/RoutePositionET.aspx?PlatformTag=423
425,10279,"Valencia Blvd & Citrus Dr",34.412934,-118.554159,http://businfo.santa-clarita.com/RTT/Public/RoutePositionET.aspx?PlatformTag=425
426,19060,"Valencia Blvd & Citrus Dr",34.413233,-118.554941,http://businfo.santa-clarita.com/RTT/Public/RoutePositionET.aspx?PlatformTag=426
427,11657,"McBean Pky",34.415265,-118.560937,http://businfo.santa-clarita.com/RTT/Public/RoutePositionET.aspx?PlatformTag=427
428,19812,"McBean Pky",34.416237,-118.561087,http://businfo.santa-clarita.com/RTT/Public/RoutePositionET.aspx?PlatformTag=428
429,11661,"McBean Pky & Town Center Dr",34.417494,-118.562362,http://businfo.santa-clarita.com/RTT/Public/RoutePositionET.aspx?PlatformTag=429
430,10246,"McBean Pky & Town Center Dr",34.418192,-118.562233,http://businfo.santa-clarita.com/RTT/Public/RoutePositionET.aspx?PlatformTag=430
431,15326,"Magic Mountain Pky & Carousel Ln",34.418058,-118.557484,http://businfo.santa-clarita.com/RTT/Public/RoutePositionET.aspx?PlatformTag=431
432,14339,"Magic Mountain Pky & Citrus Dr",34.417211,-118.553391,http://businfo.santa-clarita.com/RTT/Public/RoutePositionET.aspx?PlatformTag=432
433,15335,"Magic Mountain Pky & Citrus Dr",34.416671,-118.552451,http://businfo.santa-clarita.com/RTT/Public/RoutePositionET.aspx?PlatformTag=433
434,14325,"Magic Mountain Pky & Valencia Blvd",34.416283,-118.550228,http://businfo.santa-clarita.com/RTT/Public/RoutePositionET.aspx?PlatformTag=434
435,16985,"Magic Mountain Pky & Town Center Dr",34.420094,-118.564350,http://businfo.santa-clarita.com/RTT/Public/RoutePositionET.aspx?PlatformTag=435
436,10090,"McBean Pky & Magic Mountain Pky",34.419447,-118.562910,http://businfo.santa-clarita.com/RTT/Public/RoutePositionET.aspx?PlatformTag=436
437,19999,"Magic Mountain Pky & Theater Dr",34.419119,-118.561095,http://businfo.santa-clarita.com/RTT/Public/RoutePositionET.aspx?PlatformTag=437
438,14318,"Magic Mountain Pky & Auto Center Dr",34.418844,-118.558979,http://businfo.santa-clarita.com/RTT/Public/RoutePositionET.aspx?PlatformTag=438
439,12828,"Magic Mountain Pky & Theater Dr",34.419527,-118.561311,http://businfo.santa-clarita.com/RTT/Public/RoutePositionET.aspx?PlatformTag=439
440,10527,"McBean Pky & Creekside Rd",34.420863,-118.562523,http://businfo.santa-clarita.com/RTT/Public/RoutePositionET.aspx?PlatformTag=440
441,15152,"Valencia Blvd & Magic Mountain Pky",34.415759,-118.550010,http://businfo.santa-clarita.com/RTT/Public/RoutePositionET.aspx?PlatformTag=441
442,10267,"Magic Mountain Pky & Valencia Blvd",34.415772,-118.549340,http://businfo.santa-clarita.com/RTT/Public/RoutePositionET.aspx?PlatformTag=442
443,19968,"Valencia Blvd & Magic Mountain Pky",34.416452,-118.549369,http://businfo.santa-clarita.com/RTT/Public/RoutePositionET.aspx?PlatformTag=443
445,18080,"Ave Scott & Anza Dr",34.433014,-118.571070,http://businfo.santa-clarita.com/RTT/Public/RoutePositionET.aspx?PlatformTag=445
446,10349,"Ave Tibbitts & Ave Scott",34.432674,-118.569244,http://businfo.santa-clarita.com/RTT/Public/RoutePositionET.aspx?PlatformTag=446
447,16218,"Ave Tibbitts & Ave Scott",34.432455,-118.569120,http://businfo.santa-clarita.com/RTT/Public/RoutePositionET.aspx?PlatformTag=447
448,10312,"Ave Tibbitts & Ave Mentry",34.435070,-118.566309,http://businfo.santa-clarita.com/RTT/Public/RoutePositionET.aspx?PlatformTag=448
449,16225,"Ave Tibbitts & Ave Mentry",34.434950,-118.566022,http://businfo.santa-clarita.com/RTT/Public/RoutePositionET.aspx?PlatformTag=449
450,18196,"Newhall Ranch Rd & Ave Tibbitts",34.435782,-118.563670,http://businfo.santa-clarita.com/RTT/Public/RoutePositionET.aspx?PlatformTag=450
451,,"Ave Tibbitts & Nth Dickason Dr",34.436068,-118.565075,http://businfo.santa-clarita.com/RTT/Public/RoutePositionET.aspx?PlatformTag=451
452,10074,"McBean Pky & Bridgeport Ln",34.426964,-118.561709,http://businfo.santa-clarita.com/RTT/Public/RoutePositionET.aspx?PlatformTag=452
453,10656,"McBean Pky & Bridgeport Ln",34.427896,-118.560352,http://businfo.santa-clarita.com/RTT/Public/RoutePositionET.aspx?PlatformTag=453
454,10061,"McBean Pky & Baywood Ln",34.429184,-118.559783,http://businfo.santa-clarita.com/RTT/Public/RoutePositionET.aspx?PlatformTag=454
455,10673,"McBean Pky & Baywood Ln",34.429981,-118.558533,http://businfo.santa-clarita.com/RTT/Public/RoutePositionET.aspx?PlatformTag=455
456,10057,"McBean Pky & Newhall Ranch Rd",34.430806,-118.558367,http://businfo.santa-clarita.com/RTT/Public/RoutePositionET.aspx?PlatformTag=456
457,10205,"Newhall Ranch Rd & Baywood Ln",34.432349,-118.558454,http://businfo.santa-clarita.com/RTT/Public/RoutePositionET.aspx?PlatformTag=457
458,11299,"McBean Pky & Newhall Ranch Rd",34.431768,-118.556990,http://businfo.santa-clarita.com/RTT/Public/RoutePositionET.aspx?PlatformTag=458
459,10660,"Newhall Ranch Rd & McBean Pky",34.430620,-118.556903,http://businfo.santa-clarita.com/RTT/Public/RoutePositionET.aspx?PlatformTag=459
460,10850,"Newhall Ranch Rd & Bridgeview Ln",34.428859,-118.553450,http://businfo.santa-clarita.com/RTT/Public/RoutePositionET.aspx?PlatformTag=460
461,10866,"Newhall Ranch Rd & Bridgeview Ln",34.429826,-118.554683,http://businfo.santa-clarita.com/RTT/Public/RoutePositionET.aspx?PlatformTag=461
462,15763,"McBean Pky & Fairview Dr",34.433878,-118.556242,http://businfo.santa-clarita.com/RTT/Public/RoutePositionET.aspx?PlatformTag=462
463,11252,"McBean Pky & Fairview Dr",34.435021,-118.555784,http://businfo.santa-clarita.com/RTT/Public/RoutePositionET.aspx?PlatformTag=463
464,10088,"McBean Pky & Creekside Rd",34.422392,-118.562935,http://businfo.santa-clarita.com/RTT/Public/RoutePositionET.aspx?PlatformTag=464
465,10222,"Newhall Ranch Rd",34.437376,-118.565293,http://businfo.santa-clarita.com/RTT/Public/RoutePositionET.aspx?PlatformTag=465
466,11378,"Decoro Dr & Alta Vista Ave",34.445266,-118.565391,http://businfo.santa-clarita.com/RTT/Public/RoutePositionET.aspx?PlatformTag=466
467,17945,"Decoro Dr & Copperstone Dr",34.445191,-118.564703,http://businfo.santa-clarita.com/RTT/Public/RoutePositionET.aspx?PlatformTag=467
468,17932,"Decoro Dr & Nth Dickason Dr",34.444658,-118.562020,http://businfo.santa-clarita.com/RTT/Public/RoutePositionET.aspx?PlatformTag=468
469,11350,"Decoro Dr & Nth Dickason Dr",34.444429,-118.560691,http://businfo.santa-clarita.com/RTT/Public/RoutePositionET.aspx?PlatformTag=469
470,11155,"Nth Dickason Dr & Decoro Dr",34.442933,-118.561593,http://businfo.santa-clarita.com/RTT/Public/RoutePositionET.aspx?PlatformTag=470
471,15792,"McBean Pky & Cottage Circle Dr",34.439404,-118.555565,http://businfo.santa-clarita.com/RTT/Public/RoutePositionET.aspx?PlatformTag=471
472,11268,"McBean Pky & Cottage Circle Dr",34.440163,-118.554836,http://businfo.santa-clarita.com/RTT/Public/RoutePositionET.aspx?PlatformTag=472
473,11397,"Decoro Dr & Sunny Creek Dr",34.444217,-118.555792,http://businfo.santa-clarita.com/RTT/Public/RoutePositionET.aspx?PlatformTag=473
474,17921,"Decoro Dr & Sunny Creek Dr",34.444446,-118.555561,http://businfo.santa-clarita.com/RTT/Public/RoutePositionET.aspx?PlatformTag=474
475,15785,"McBean Pky & Decoro Dr",34.443505,-118.553726,http://businfo.santa-clarita.com/RTT/Public/RoutePositionET.aspx?PlatformTag=475
476,18108,"McBean Pky & Decoro Dr",34.445115,-118.553258,http://businfo.santa-clarita.com/RTT/Public/RoutePositionET.aspx?PlatformTag=476
477,17071,"Valencia Blvd & Cinema Dr",34.421929,-118.547078,http://businfo.santa-clarita.com/RTT/Public/RoutePositionET.aspx?PlatformTag=477
478,19975,"Valencia Blvd & Cinema Dr",34.421327,-118.547287,http://businfo.santa-clarita.com/RTT/Public/RoutePositionET.aspx?PlatformTag=478
479,18226,"Cinema Dr & Academy Pl",34.419974,-118.545340,http://businfo.santa-clarita.com/RTT/Public/RoutePositionET.aspx?PlatformTag=479
480,14341,"Bouquet Canyon Rd & Cinema Dr",34.418964,-118.542168,http://businfo.santa-clarita.com/RTT/Public/RoutePositionET.aspx?PlatformTag=480
481,15342,"Bouquet Canyon Rd & Cinema Dr",34.419941,-118.541939,http://businfo.santa-clarita.com/RTT/Public/RoutePositionET.aspx?PlatformTag=481
482,14076,"Bouquet Canyon Rd & Soledad Canyon Rd",34.422172,-118.541517,http://businfo.santa-clarita.com/RTT/Public/RoutePositionET.aspx?PlatformTag=482
483,16622,"Soledad Canyon Rd & Bouquet Canyon Rd",34.422283,-118.539707,http://businfo.santa-clarita.com/RTT/Public/RoutePositionET.aspx?PlatformTag=483
484,19209,"Soledad Canyon Rd & Bouquet Canyon Rd",34.422457,-118.539153,http://businfo.santa-clarita.com/RTT/Public/RoutePositionET.aspx?PlatformTag=484
485,14581,"Bouquet Canyon Rd & Soledad Canyon Rd",34.423278,-118.540255,http://businfo.santa-clarita.com/RTT/Public/RoutePositionET.aspx?PlatformTag=485
486,15818,"Soledad Canyon Rd & Commuter Wy",34.415944,-118.525711,http://businfo.santa-clarita.com/RTT/Public/RoutePositionET.aspx?PlatformTag=486
487,16153,"Soledad Canyon Rd & Commuter Wy",34.415668,-118.525813,http://businfo.santa-clarita.com/RTT/Public/RoutePositionET.aspx?PlatformTag=487
488,19503,"Commuter Wy & Soledad Canyon Rd",34.415193,-118.526390,http://businfo.santa-clarita.com/RTT/Public/RoutePositionET.aspx?PlatformTag=488
489,13093,"Commuter Wy & Soledad Canyon Rd",34.415062,-118.526851,http://businfo.santa-clarita.com/RTT/Public/RoutePositionET.aspx?PlatformTag=489
494,13323,"Santa Clarita Metrolink",34.413421,-118.524682,http://businfo.santa-clarita.com/RTT/Public/RoutePositionET.aspx?PlatformTag=494
496,13334,"Commuter Wy & Soledad Canyon Rd",34.414106,-118.524634,http://businfo.santa-clarita.com/RTT/Public/RoutePositionET.aspx?PlatformTag=496
497,19213,"Soledad Canyon Rd & Golden Oak Rd",34.416200,-118.513550,http://businfo.santa-clarita.com/RTT/Public/RoutePositionET.aspx?PlatformTag=497
498,16633,"Soledad Canyon Rd & Golden Oak Rd",34.416322,-118.512721,http://businfo.santa-clarita.com/RTT/Public/RoutePositionET.aspx?PlatformTag=498
499,15825,"Soledad Canyon Rd & Wishbone Wy",34.418941,-118.508138,http://businfo.santa-clarita.com/RTT/Public/RoutePositionET.aspx?PlatformTag=499
501,11193,"Copper Hill Dr & Tesoro Del Valle Dr",34.462246,-118.560382,http://businfo.santa-clarita.com/RTT/Public/RoutePositionET.aspx?PlatformTag=501
502,18993,"Copper Hill Dr & Tesoro Del Valle Dr",34.462452,-118.559348,http://businfo.santa-clarita.com/RTT/Public/RoutePositionET.aspx?PlatformTag=502
503,10137,"McBean Pky & Copper Hill Dr",34.461573,-118.549951,http://businfo.santa-clarita.com/RTT/Public/RoutePositionET.aspx?PlatformTag=503
504,17529,"McBean Pky & Gv House Dr",34.459152,-118.549608,http://businfo.santa-clarita.com/RTT/Public/RoutePositionET.aspx?PlatformTag=504
505,10144,"McBean Pky & Gv House Dr",34.458225,-118.549848,http://businfo.santa-clarita.com/RTT/Public/RoutePositionET.aspx?PlatformTag=505
506,11592,"Nth Prk Dr & Landmark Wy",34.457263,-118.544785,http://businfo.santa-clarita.com/RTT/Public/RoutePositionET.aspx?PlatformTag=506
507,17643,"Nth Prk Dr & Landmark Wy",34.456799,-118.544990,http://businfo.santa-clarita.com/RTT/Public/RoutePositionET.aspx?PlatformTag=507
508,17538,"Copper Hill Dr & Calex Dr",34.462158,-118.547483,http://businfo.santa-clarita.com/RTT/Public/RoutePositionET.aspx?PlatformTag=508
509,18120,"Copper Hill Dr & Medlar Dr",34.462130,-118.546315,http://businfo.santa-clarita.com/RTT/Public/RoutePositionET.aspx?PlatformTag=509
510,18112,"Copper Hill Dr & Medlar Dr",34.462351,-118.546111,http://businfo.santa-clarita.com/RTT/Public/RoutePositionET.aspx?PlatformTag=510
511,10116,"Copper Hill Dr & Nth Prk Dr",34.461865,-118.543334,http://businfo.santa-clarita.com/RTT/Public/RoutePositionET.aspx?PlatformTag=511
512,18131,"Copper Hill Dr & Nth Prk Dr",34.461249,-118.542219,http://businfo.santa-clarita.com/RTT/Public/RoutePositionET.aspx?PlatformTag=512
513,11571,"Nth Prk Dr & Copper Hill Dr",34.461063,-118.543328,http://businfo.santa-clarita.com/RTT/Public/RoutePositionET.aspx?PlatformTag=513
514,14146,"LARC",34.477648,-118.465032,http://businfo.santa-clarita.com/RTT/Public/RoutePositionET.aspx?PlatformTag=514
515,16241,"Bouquet Canyon Rd & Esguerra Rd",34.469322,-118.470909,http://businfo.santa-clarita.com/RTT/Public/RoutePositionET.aspx?PlatformTag=515
516,14133,"Bouquet Canyon Rd & Blue Cloud Rd",34.464459,-118.480578,http://businfo.santa-clarita.com/RTT/Public/RoutePositionET.aspx?PlatformTag=516
517,17501,"McBean Pky & Summerhill Ln",34.446620,-118.553117,http://businfo.santa-clarita.com/RTT/Public/RoutePositionET.aspx?PlatformTag=517
518,17517,"McBean Pky & Skycrest Circle Dr",34.448087,-118.552426,http://businfo.santa-clarita.com/RTT/Public/RoutePositionET.aspx?PlatformTag=518
519,17913,"McBean Pky & Skycrest Circle Dr",34.448371,-118.552532,http://businfo.santa-clarita.com/RTT/Public/RoutePositionET.aspx?PlatformTag=519
520,10128,"McBean Pky & Nth Prk Dr",34.451393,-118.549761,http://businfo.santa-clarita.com/RTT/Public/RoutePositionET.aspx?PlatformTag=520
521,16944,"McBean Pky & Nth Prk Dr",34.452189,-118.548914,http://businfo.santa-clarita.com/RTT/Public/RoutePositionET.aspx?PlatformTag=521
522,10100,"McBean Pky & Sunset Hills Dr",34.453672,-118.548740,http://businfo.santa-clarita.com/RTT/Public/RoutePositionET.aspx?PlatformTag=522
523,17540,"McBean Pky & Sunset Hills Dr",34.454750,-118.548472,http://businfo.santa-clarita.com/RTT/Public/RoutePositionET.aspx?PlatformTag=523
524,11275,"Nth Prk Dr & Sunset Hills Dr",34.454894,-118.544209,http://businfo.santa-clarita.com/RTT/Public/RoutePositionET.aspx?PlatformTag=524
525,17636,"Nth Prk Dr & Sunset Hills Dr",34.454312,-118.544230,http://businfo.santa-clarita.com/RTT/Public/RoutePositionET.aspx?PlatformTag=525
526,11563,"Nth Prk Dr & Tamarind Wy",34.451605,-118.546310,http://businfo.santa-clarita.com/RTT/Public/RoutePositionET.aspx?PlatformTag=526
527,18827,"Nth Prk Dr & Tamarind Wy",34.451480,-118.545936,http://businfo.santa-clarita.com/RTT/Public/RoutePositionET.aspx?PlatformTag=527
528,11117,"Grandview Dr & Hatheway Dr",34.445120,-118.548911,http://businfo.santa-clarita.com/RTT/Public/RoutePositionET.aspx?PlatformTag=528
529,11559,"Grandview Dr & Hatheway Dr",34.444763,-118.548822,http://businfo.santa-clarita.com/RTT/Public/RoutePositionET.aspx?PlatformTag=529
531,11281,"Hillsborough Pky & Deerfield Ln",34.447458,-118.545243,http://businfo.santa-clarita.com/RTT/Public/RoutePositionET.aspx?PlatformTag=531
532,18836,"Hillsborough Pky & Barfield Dr",34.447091,-118.544671,http://businfo.santa-clarita.com/RTT/Public/RoutePositionET.aspx?PlatformTag=532
533,16260,"Hillsborough Pky & Hillcrest Pl",34.445028,-118.543593,http://businfo.santa-clarita.com/RTT/Public/RoutePositionET.aspx?PlatformTag=533
534,11101,"Hillsborough Pky & Blueridge Dr",34.444741,-118.543815,http://businfo.santa-clarita.com/RTT/Public/RoutePositionET.aspx?PlatformTag=534
535,16256,"Hillsborough Pky & Littleton Wy",34.440866,-118.545263,http://businfo.santa-clarita.com/RTT/Public/RoutePositionET.aspx?PlatformTag=535
538,11140,"Hillsborough Pky & Highlands Ln",34.437691,-118.545386,http://businfo.santa-clarita.com/RTT/Public/RoutePositionET.aspx?PlatformTag=538
539,16294,"Hillsborough Pky",34.437485,-118.545256,http://businfo.santa-clarita.com/RTT/Public/RoutePositionET.aspx?PlatformTag=539
540,16729,"Vista Delgado Dr & Decoro Dr",34.441913,-118.536450,http://businfo.santa-clarita.com/RTT/Public/RoutePositionET.aspx?PlatformTag=540
541,19471,"Seco Canyon Rd & Decoro Dr",34.442449,-118.534199,http://businfo.santa-clarita.com/RTT/Public/RoutePositionET.aspx?PlatformTag=541
542,11439,"Seco Canyon Rd & Guadilamar Dr",34.446483,-118.534733,http://businfo.santa-clarita.com/RTT/Public/RoutePositionET.aspx?PlatformTag=542
543,11528,"Seco Canyon Rd & Guadilamar Dr",34.446491,-118.534944,http://businfo.santa-clarita.com/RTT/Public/RoutePositionET.aspx?PlatformTag=543
545,16287,"Hillsborough Pky & Fairview Dr",34.434051,-118.545673,http://businfo.santa-clarita.com/RTT/Public/RoutePositionET.aspx?PlatformTag=545
547,10639,"Seco Canyon Rd & Garzota Dr",34.437028,-118.532698,http://businfo.santa-clarita.com/RTT/Public/RoutePositionET.aspx?PlatformTag=547
548,10618,"Seco Canyon Rd & Bouquet Canyon Rd",34.434476,-118.531888,http://businfo.santa-clarita.com/RTT/Public/RoutePositionET.aspx?PlatformTag=548
549,10035,"Bouquet Canyon Rd & Festividad Dr",34.432461,-118.532496,http://businfo.santa-clarita.com/RTT/Public/RoutePositionET.aspx?PlatformTag=549
550,19831,"Bouquet Canyon Rd & Seco Canyon Rd",34.433597,-118.530422,http://businfo.santa-clarita.com/RTT/Public/RoutePositionET.aspx?PlatformTag=550
551,10026,"Seco Canyon Rd & Bouquet Canyon Rd",34.434186,-118.531595,http://businfo.santa-clarita.com/RTT/Public/RoutePositionET.aspx?PlatformTag=551
552,14069,"Bouquet Canyon Rd & Alamogordo Rd",34.434401,-118.525616,http://businfo.santa-clarita.com/RTT/Public/RoutePositionET.aspx?PlatformTag=552
553,10878,"Newhall Ranch Rd & Grandview Dr",34.428684,-118.551345,http://businfo.santa-clarita.com/RTT/Public/RoutePositionET.aspx?PlatformTag=553
554,10003,"Newhall Ranch Rd & Grandview Dr",34.428035,-118.549762,http://businfo.santa-clarita.com/RTT/Public/RoutePositionET.aspx?PlatformTag=554
555,10884,"Newhall Ranch Rd & Hillsborough Pky",34.428378,-118.545893,http://businfo.santa-clarita.com/RTT/Public/RoutePositionET.aspx?PlatformTag=555
556,10042,"Newhall Ranch Rd & Parkwood Ln",34.428058,-118.544602,http://businfo.santa-clarita.com/RTT/Public/RoutePositionET.aspx?PlatformTag=556
557,16273,"Hillsborough Pky & Cheyenne Dr",34.429761,-118.545108,http://businfo.santa-clarita.com/RTT/Public/RoutePositionET.aspx?PlatformTag=557
558,14082,"Bouquet Canyon Rd",34.426665,-118.537858,http://businfo.santa-clarita.com/RTT/Public/RoutePositionET.aspx?PlatformTag=558
559,10641,"Newhall Ranch Rd & Bouquet Canyon Rd",34.427634,-118.537579,http://businfo.santa-clarita.com/RTT/Public/RoutePositionET.aspx?PlatformTag=559
560,11418,"Bouquet Canyon Rd & Newhall Ranch Rd",34.427876,-118.536429,http://businfo.santa-clarita.com/RTT/Public/RoutePositionET.aspx?PlatformTag=560
561,10625,"Bouquet Canyon Rd & Espuella Dr",34.430066,-118.535166,http://businfo.santa-clarita.com/RTT/Public/RoutePositionET.aspx?PlatformTag=561
562,10019,"Bouquet Canyon Rd & Espuella Dr",34.430118,-118.534730,http://businfo.santa-clarita.com/RTT/Public/RoutePositionET.aspx?PlatformTag=562
563,16900,"Bouquet Canyon Rd & Alamogordo Rd",34.434309,-118.524538,http://businfo.santa-clarita.com/RTT/Public/RoutePositionET.aspx?PlatformTag=563
564,14095,"Bouquet Canyon Rd & Central Prk",34.435480,-118.521819,http://businfo.santa-clarita.com/RTT/Public/RoutePositionET.aspx?PlatformTag=564
565,14599,"Bouquet Canyon Rd & Central Prk",34.435591,-118.520799,http://businfo.santa-clarita.com/RTT/Public/RoutePositionET.aspx?PlatformTag=565
566,14053,"Bouquet Canyon Rd & Centurion Wy",34.440295,-118.514444,http://businfo.santa-clarita.com/RTT/Public/RoutePositionET.aspx?PlatformTag=566
567,14552,"Bouquet Canyon Rd & Centurion Wy",34.440075,-118.514233,http://businfo.santa-clarita.com/RTT/Public/RoutePositionET.aspx?PlatformTag=567
568,15650,"Centurion Wy & Hyssop Ln",34.442453,-118.517343,http://businfo.santa-clarita.com/RTT/Public/RoutePositionET.aspx?PlatformTag=568
569,19705,"Bouquet Canyon Rd & Haskell Canyon Rd",34.442562,-118.512601,http://businfo.santa-clarita.com/RTT/Public/RoutePositionET.aspx?PlatformTag=569
570,14568,"Bouquet Canyon Rd & Susan Beth Wy",34.442990,-118.510564,http://businfo.santa-clarita.com/RTT/Public/RoutePositionET.aspx?PlatformTag=570
571,11776,"Seco Canyon Rd & Pamplico Dr",34.450617,-118.535266,http://businfo.santa-clarita.com/RTT/Public/RoutePositionET.aspx?PlatformTag=571
572,11441,"Seco Canyon Rd & Pamplico Dr",34.451197,-118.535098,http://businfo.santa-clarita.com/RTT/Public/RoutePositionET.aspx?PlatformTag=572
573,11782,"Seco Canyon Rd & Tupelo Ridge Dr",34.455986,-118.535002,http://businfo.santa-clarita.com/RTT/Public/RoutePositionET.aspx?PlatformTag=573
574,11402,"Seco Canyon Rd & Tupelo Ridge Dr",34.456224,-118.534787,http://businfo.santa-clarita.com/RTT/Public/RoutePositionET.aspx?PlatformTag=574
575,18149,"Copper Hill Dr & Sycamore Creek Dr",34.460152,-118.538568,http://businfo.santa-clarita.com/RTT/Public/RoutePositionET.aspx?PlatformTag=575
576,10897,"Seco Canyon Rd & Copper Hill Dr",34.459562,-118.534532,http://businfo.santa-clarita.com/RTT/Public/RoutePositionET.aspx?PlatformTag=576
577,10455,"Seco Canyon Rd",34.460822,-118.534190,http://businfo.santa-clarita.com/RTT/Public/RoutePositionET.aspx?PlatformTag=577
578,11537,"Seco Canyon Rd",34.460954,-118.534357,http://businfo.santa-clarita.com/RTT/Public/RoutePositionET.aspx?PlatformTag=578
579,11516,"Seco Canyon Rd & Banyan Pl",34.463040,-118.533276,http://businfo.santa-clarita.com/RTT/Public/RoutePositionET.aspx?PlatformTag=579
580,10464,"Seco Canyon Rd & Banyan Pl",34.462818,-118.533089,http://businfo.santa-clarita.com/RTT/Public/RoutePositionET.aspx?PlatformTag=580
581,11500,"Seco Canyon Rd & Hazel St",34.466606,-118.532531,http://businfo.santa-clarita.com/RTT/Public/RoutePositionET.aspx?PlatformTag=581
582,10472,"Hazel St & Seco Canyon Rd",34.466485,-118.532203,http://businfo.santa-clarita.com/RTT/Public/RoutePositionET.aspx?PlatformTag=582
583,10486,"Hazel St",34.465583,-118.530281,http://businfo.santa-clarita.com/RTT/Public/RoutePositionET.aspx?PlatformTag=583
584,11795,"Seco Canyon Rd & Coral Wy",34.468099,-118.532722,http://businfo.santa-clarita.com/RTT/Public/RoutePositionET.aspx?PlatformTag=584
585,10493,"Tamarack Ln & Lemon St",34.469563,-118.530237,http://businfo.santa-clarita.com/RTT/Public/RoutePositionET.aspx?PlatformTag=585
586,12816,"Hidden Hills Dr & West Gold Canyon Dr",34.465205,-118.523594,http://businfo.santa-clarita.com/RTT/Public/RoutePositionET.aspx?PlatformTag=586
587,16740,"Copper Hill Dr & Hidden Hills Dr",34.459762,-118.523981,http://businfo.santa-clarita.com/RTT/Public/RoutePositionET.aspx?PlatformTag=587
588,12844,"Nth Rock Canyon Dr & Crestline Trl",34.471170,-118.518248,http://businfo.santa-clarita.com/RTT/Public/RoutePositionET.aspx?PlatformTag=588
589,10706,"Nth Garnet Canyon Dr & Crestline Trl",34.468137,-118.523277,http://businfo.santa-clarita.com/RTT/Public/RoutePositionET.aspx?PlatformTag=589
590,15405,"Haskell Canyon Rd & Kyra Ct",34.465884,-118.513071,http://businfo.santa-clarita.com/RTT/Public/RoutePositionET.aspx?PlatformTag=590
591,15666,"Grovepark Dr & Open Crest Dr",34.446904,-118.519985,http://businfo.santa-clarita.com/RTT/Public/RoutePositionET.aspx?PlatformTag=591
592,16508,"Grovepark Dr & Open Crest Dr",34.447082,-118.519799,http://businfo.santa-clarita.com/RTT/Public/RoutePositionET.aspx?PlatformTag=592
593,15697,"Ridgegrove Dr & Barrett Dr",34.447641,-118.512743,http://businfo.santa-clarita.com/RTT/Public/RoutePositionET.aspx?PlatformTag=593
594,16512,"Ridgegrove Dr",34.447896,-118.512077,http://businfo.santa-clarita.com/RTT/Public/RoutePositionET.aspx?PlatformTag=594
595,15217,"Bouquet Canyon Rd & Urbandale Ave",34.445860,-118.506109,http://businfo.santa-clarita.com/RTT/Public/RoutePositionET.aspx?PlatformTag=595
596,15319,"Bouquet Canyon Rd & Urbandale Ave",34.446162,-118.505300,http://businfo.santa-clarita.com/RTT/Public/RoutePositionET.aspx?PlatformTag=596
598,14855,"Bouquet Canyon Rd & Wellston Dr",34.447830,-118.501284,http://businfo.santa-clarita.com/RTT/Public/RoutePositionET.aspx?PlatformTag=598
599,15229,"Bouquet Canyon Rd & Plum Canyon Rd",34.449439,-118.498794,http://businfo.santa-clarita.com/RTT/Public/RoutePositionET.aspx?PlatformTag=599
600,15684,"Alaminos Dr & Urbandale Ave",34.448939,-118.507504,http://businfo.santa-clarita.com/RTT/Public/RoutePositionET.aspx?PlatformTag=600
601,16520,"Alaminos Dr & Urbandale Ave",34.449060,-118.507539,http://businfo.santa-clarita.com/RTT/Public/RoutePositionET.aspx?PlatformTag=601
602,16531,"Alaminos Dr & Newbird Dr",34.451725,-118.501073,http://businfo.santa-clarita.com/RTT/Public/RoutePositionET.aspx?PlatformTag=602
603,15678,"Alaminos Dr & Newbird Dr",34.451628,-118.501036,http://businfo.santa-clarita.com/RTT/Public/RoutePositionET.aspx?PlatformTag=603
604,18787,"Plum Canyon Rd",34.449381,-118.497307,http://businfo.santa-clarita.com/RTT/Public/RoutePositionET.aspx?PlatformTag=604
605,14893,"Bouquet Canyon Rd & Plum Canyon Rd",34.450404,-118.497683,http://businfo.santa-clarita.com/RTT/Public/RoutePositionET.aspx?PlatformTag=605
606,18794,"Bouquet Canyon Rd & Dot St",34.451622,-118.497179,http://businfo.santa-clarita.com/RTT/Public/RoutePositionET.aspx?PlatformTag=606
607,14886,"Bouquet Canyon Rd & Steve Jon St",34.453072,-118.495842,http://businfo.santa-clarita.com/RTT/Public/RoutePositionET.aspx?PlatformTag=607
608,15238,"Plum Canyon Rd & Rodgers Dr",34.448900,-118.494015,http://businfo.santa-clarita.com/RTT/Public/RoutePositionET.aspx?PlatformTag=608
609,18773,"Plum Canyon Rd & Rodgers Dr",34.448468,-118.492775,http://businfo.santa-clarita.com/RTT/Public/RoutePositionET.aspx?PlatformTag=609
610,15240,"Plum Canyon Rd & Via Joyce Dr",34.447990,-118.490538,http://businfo.santa-clarita.com/RTT/Public/RoutePositionET.aspx?PlatformTag=610
611,10723,"Rose Canyon Ln & Willow Canyon Ct",34.460982,-118.516391,http://businfo.santa-clarita.com/RTT/Public/RoutePositionET.aspx?PlatformTag=611
612,15451,"Rose Canyon Ln & Haskell Canyon Rd",34.461583,-118.512185,http://businfo.santa-clarita.com/RTT/Public/RoutePositionET.aspx?PlatformTag=612
614,16717,"Copper Hill Dr & Old Spanish Trl",34.459822,-118.510574,http://businfo.santa-clarita.com/RTT/Public/RoutePositionET.aspx?PlatformTag=614
615,16937,"Copper Hill Dr & Deer Spring Dr",34.461062,-118.507463,http://businfo.santa-clarita.com/RTT/Public/RoutePositionET.aspx?PlatformTag=615
616,16928,"Copper Hill Dr",34.461742,-118.504027,http://businfo.santa-clarita.com/RTT/Public/RoutePositionET.aspx?PlatformTag=616
617,16549,"Alaminos Dr & Franwood Dr",34.456453,-118.498243,http://businfo.santa-clarita.com/RTT/Public/RoutePositionET.aspx?PlatformTag=617
618,15771,"Alaminos Dr & Franwood Dr",34.456990,-118.498154,http://businfo.santa-clarita.com/RTT/Public/RoutePositionET.aspx?PlatformTag=618
619,14114,"Benz Rd & Alaminos Dr",34.457878,-118.497669,http://businfo.santa-clarita.com/RTT/Public/RoutePositionET.aspx?PlatformTag=619
620,14872,"Bouquet Canyon Rd & Russ Jay St",34.455852,-118.495730,http://businfo.santa-clarita.com/RTT/Public/RoutePositionET.aspx?PlatformTag=620
621,11912,"Alaminos Dr & Row Ct",34.460340,-118.494292,http://businfo.santa-clarita.com/RTT/Public/RoutePositionET.aspx?PlatformTag=621
623,16202,"Calhaven Dr & Prk Woodland Pl",34.461322,-118.492161,http://businfo.santa-clarita.com/RTT/Public/RoutePositionET.aspx?PlatformTag=623
624,16239,"Kathleen Ave & Copper Hill Dr",34.461656,-118.494809,http://businfo.santa-clarita.com/RTT/Public/RoutePositionET.aspx?PlatformTag=624
626,15915,"Starwood Wy & Woodside Dr",34.462239,-118.488050,http://businfo.santa-clarita.com/RTT/Public/RoutePositionET.aspx?PlatformTag=626
627,16701,"Shadow Valley Ln & Carson Ct",34.460270,-118.486386,http://businfo.santa-clarita.com/RTT/Public/RoutePositionET.aspx?PlatformTag=627
628,14122,"Bouquet Canyon Rd & Shadow Valley Ln",34.459898,-118.485755,http://businfo.santa-clarita.com/RTT/Public/RoutePositionET.aspx?PlatformTag=628
629,14864,"Bouquet Canyon Rd & Shadow Valley Ln",34.459512,-118.486017,http://businfo.santa-clarita.com/RTT/Public/RoutePositionET.aspx?PlatformTag=629
630,10747,"Golden Valley Rd",34.397158,-118.492039,http://businfo.santa-clarita.com/RTT/Public/RoutePositionET.aspx?PlatformTag=630
631,15422,"Golden Valley Rd & Robert C. Lee Pky",34.397447,-118.491988,http://businfo.santa-clarita.com/RTT/Public/RoutePositionET.aspx?PlatformTag=631
632,15553,"Sierra Hwy & Golden Valley Rd",34.395260,-118.485489,http://businfo.santa-clarita.com/RTT/Public/RoutePositionET.aspx?PlatformTag=632
633,13001,"Sierra Hwy & Golden Valley Rd",34.395952,-118.484103,http://businfo.santa-clarita.com/RTT/Public/RoutePositionET.aspx?PlatformTag=633
634,15576,"Sierra Hwy & Rainbow Gln Dr",34.397754,-118.480834,http://businfo.santa-clarita.com/RTT/Public/RoutePositionET.aspx?PlatformTag=634
635,19561,"Sierra Hwy & Rainbow Gln Dr",34.397672,-118.480214,http://businfo.santa-clarita.com/RTT/Public/RoutePositionET.aspx?PlatformTag=635
636,10781,"Swan Ln & Nth Cardinal Dr",34.397417,-118.452071,http://businfo.santa-clarita.com/RTT/Public/RoutePositionET.aspx?PlatformTag=636
637,18424,"Swan Ln & Via Princessa",34.397605,-118.452943,http://businfo.santa-clarita.com/RTT/Public/RoutePositionET.aspx?PlatformTag=637
638,18430,"Swan Ln & Oakdale Canyon Ln",34.399244,-118.454002,http://businfo.santa-clarita.com/RTT/Public/RoutePositionET.aspx?PlatformTag=638
639,18448,"Lark Wy & Oakdale Canyon Ln",34.399686,-118.454737,http://businfo.santa-clarita.com/RTT/Public/RoutePositionET.aspx?PlatformTag=639
640,15433,"Nth Cardinal Dr & Wren Dr",34.401446,-118.450878,http://businfo.santa-clarita.com/RTT/Public/RoutePositionET.aspx?PlatformTag=640
641,11730,"Canyon Prk Blvd & Lost Canyon Rd",34.406575,-118.447210,http://businfo.santa-clarita.com/RTT/Public/RoutePositionET.aspx?PlatformTag=641
642,15569,"Sierra Hwy & Friendly Valley Pky",34.399566,-118.474254,http://businfo.santa-clarita.com/RTT/Public/RoutePositionET.aspx?PlatformTag=642
643,17754,"Sierra Hwy & Friendly Valley Pky",34.399715,-118.473433,http://businfo.santa-clarita.com/RTT/Public/RoutePositionET.aspx?PlatformTag=643
644,15357,"Sierra Hwy & Whispering Leaves Dr",34.402490,-118.469762,http://businfo.santa-clarita.com/RTT/Public/RoutePositionET.aspx?PlatformTag=644
645,19557,"Sierra Hwy & Whispering Leaves Dr",34.402679,-118.468986,http://businfo.santa-clarita.com/RTT/Public/RoutePositionET.aspx?PlatformTag=645
646,17765,"Sierra Hwy & Vista Del Canon",34.403797,-118.467355,http://businfo.santa-clarita.com/RTT/Public/RoutePositionET.aspx?PlatformTag=646
647,15361,"Sierra Hwy & Vista Del Canon",34.404563,-118.466744,http://businfo.santa-clarita.com/RTT/Public/RoutePositionET.aspx?PlatformTag=647
648,19542,"Sierra Hwy & Via Princessa",34.405789,-118.464269,http://businfo.santa-clarita.com/RTT/Public/RoutePositionET.aspx?PlatformTag=648
649,10775,"Via Princessa",34.403106,-118.459901,http://businfo.santa-clarita.com/RTT/Public/RoutePositionET.aspx?PlatformTag=649
650,18411,"Jason Dr & Oakmont Dr",34.406816,-118.454269,http://businfo.santa-clarita.com/RTT/Public/RoutePositionET.aspx?PlatformTag=650
651,11724,"Canyon Prk Blvd & Marisa Dr",34.407718,-118.449426,http://businfo.santa-clarita.com/RTT/Public/RoutePositionET.aspx?PlatformTag=651
652,17777,"Sierra Hwy & Flying Tiger Dr",34.408531,-118.460505,http://businfo.santa-clarita.com/RTT/Public/RoutePositionET.aspx?PlatformTag=652
653,19981,"Via Princessa & Weyerhaeuser Wy",34.408727,-118.469973,http://businfo.santa-clarita.com/RTT/Public/RoutePositionET.aspx?PlatformTag=653
654,11186,"Via Princessa",34.409576,-118.474809,http://businfo.santa-clarita.com/RTT/Public/RoutePositionET.aspx?PlatformTag=654
655,11456,"Via Princessa & Whites Canyon Rd",34.409987,-118.475928,http://businfo.santa-clarita.com/RTT/Public/RoutePositionET.aspx?PlatformTag=655
656,16050,"Soledad Canyon Rd & Oak Ave",34.420580,-118.500687,http://businfo.santa-clarita.com/RTT/Public/RoutePositionET.aspx?PlatformTag=656
657,15839,"Soledad Canyon Rd & Ruether Ave",34.420775,-118.499206,http://businfo.santa-clarita.com/RTT/Public/RoutePositionET.aspx?PlatformTag=657
658,16646,"Soledad Canyon Rd & Ruether Ave",34.420650,-118.497910,http://businfo.santa-clarita.com/RTT/Public/RoutePositionET.aspx?PlatformTag=658
659,11473,"Ruether Ave & Golden Triangle Rd",34.417819,-118.499702,http://businfo.santa-clarita.com/RTT/Public/RoutePositionET.aspx?PlatformTag=659
660,11460,"Ruether Ave & Centre Point Pky",34.414265,-118.499106,http://businfo.santa-clarita.com/RTT/Public/RoutePositionET.aspx?PlatformTag=660
661,11487,"Centre Point Pky & Ruether Ave",34.413445,-118.499386,http://businfo.santa-clarita.com/RTT/Public/RoutePositionET.aspx?PlatformTag=661
662,11172,"Centre Point Pky & Golden Valley Rd",34.412790,-118.500564,http://businfo.santa-clarita.com/RTT/Public/RoutePositionET.aspx?PlatformTag=662
663,10924,"May Wy & Citylight Ct",34.407316,-118.481918,http://businfo.santa-clarita.com/RTT/Public/RoutePositionET.aspx?PlatformTag=663
664,10383,"Via Princessa & Gregory Ln",34.410761,-118.481571,http://businfo.santa-clarita.com/RTT/Public/RoutePositionET.aspx?PlatformTag=664
665,10953,"Via Princessa & May Wy",34.410077,-118.479434,http://businfo.santa-clarita.com/RTT/Public/RoutePositionET.aspx?PlatformTag=665
666,10911,"Via Princessa & Rainbow Gln Dr",34.410718,-118.485129,http://businfo.santa-clarita.com/RTT/Public/RoutePositionET.aspx?PlatformTag=666
667,10930,"Via Princessa & Gregory Ln",34.411123,-118.482559,http://businfo.santa-clarita.com/RTT/Public/RoutePositionET.aspx?PlatformTag=667
668,11321,"Rainbow Gln Dr & Purple Martin Ct",34.412583,-118.486267,http://businfo.santa-clarita.com/RTT/Public/RoutePositionET.aspx?PlatformTag=668
669,10396,"Rainbow Gln Dr & Vireo Ct",34.414432,-118.485827,http://businfo.santa-clarita.com/RTT/Public/RoutePositionET.aspx?PlatformTag=669
670,11332,"Rainbow Gln Dr & Hummingbird Cir",34.415274,-118.485962,http://businfo.santa-clarita.com/RTT/Public/RoutePositionET.aspx?PlatformTag=670
671,10365,"Rainbow Gln Dr & Gilbert Dr",34.417026,-118.486344,http://businfo.santa-clarita.com/RTT/Public/RoutePositionET.aspx?PlatformTag=671
672,10354,"Rainbow Gln Dr & Gilbert Dr",34.417333,-118.486413,http://businfo.santa-clarita.com/RTT/Public/RoutePositionET.aspx?PlatformTag=672
673,10377,"Rainbow Gln Dr & Rue Crevier",34.419322,-118.488889,http://businfo.santa-clarita.com/RTT/Public/RoutePositionET.aspx?PlatformTag=673
674,11313,"Rainbow Gln Dr & Rue Crevier",34.419660,-118.489438,http://businfo.santa-clarita.com/RTT/Public/RoutePositionET.aspx?PlatformTag=674
675,16097,"Soledad Canyon Rd & Rainbow Gln Dr",34.421788,-118.490854,http://businfo.santa-clarita.com/RTT/Public/RoutePositionET.aspx?PlatformTag=675
676,19245,"Soledad Canyon Rd & Rainbow Gln Dr",34.421545,-118.489435,http://businfo.santa-clarita.com/RTT/Public/RoutePositionET.aspx?PlatformTag=676
677,16107,"Soledad Canyon Rd & Langside Ave",34.420641,-118.485118,http://businfo.santa-clarita.com/RTT/Public/RoutePositionET.aspx?PlatformTag=677
678,19250,"Soledad Canyon Rd & Langside Ave",34.420878,-118.484970,http://businfo.santa-clarita.com/RTT/Public/RoutePositionET.aspx?PlatformTag=678
679,11164,"Langside Ave",34.421090,-118.484471,http://businfo.santa-clarita.com/RTT/Public/RoutePositionET.aspx?PlatformTag=679
680,11345,"Bonlee Ave & Cedarcreek St",34.425664,-118.490644,http://businfo.santa-clarita.com/RTT/Public/RoutePositionET.aspx?PlatformTag=680
681,11309,"Oakgale Ave & Lakemore Dr",34.426031,-118.487977,http://businfo.santa-clarita.com/RTT/Public/RoutePositionET.aspx?PlatformTag=681
682,18760,"Plum Canyon Rd",34.446003,-118.485364,http://businfo.santa-clarita.com/RTT/Public/RoutePositionET.aspx?PlatformTag=682
683,15201,"Plum Canyon Rd & Santa Catarina Rd",34.446231,-118.484291,http://businfo.santa-clarita.com/RTT/Public/RoutePositionET.aspx?PlatformTag=683
684,18756,"Plum Canyon Rd & Golden Valley Rd",34.446126,-118.482851,http://businfo.santa-clarita.com/RTT/Public/RoutePositionET.aspx?PlatformTag=684
685,14942,"Heller Cir & Edgehurst Ln",34.443610,-118.478110,http://businfo.santa-clarita.com/RTT/Public/RoutePositionET.aspx?PlatformTag=685
686,14935,"Heller Cir",34.443874,-118.474093,http://businfo.santa-clarita.com/RTT/Public/RoutePositionET.aspx?PlatformTag=686
687,14961,"Whites Canyon Rd & Ashboro Dr",34.436401,-118.477767,http://businfo.santa-clarita.com/RTT/Public/RoutePositionET.aspx?PlatformTag=687
688,14988,"Whites Canyon Rd & Steinway St",34.434695,-118.477237,http://businfo.santa-clarita.com/RTT/Public/RoutePositionET.aspx?PlatformTag=688
689,14903,"Whites Canyon Rd & Steinway St",34.434814,-118.476979,http://businfo.santa-clarita.com/RTT/Public/RoutePositionET.aspx?PlatformTag=689
690,14990,"Whites Canyon Rd & Wildwind Rd",34.433531,-118.474879,http://businfo.santa-clarita.com/RTT/Public/RoutePositionET.aspx?PlatformTag=690
691,14926,"Whites Canyon Rd & Canyon Crest Dr",34.432070,-118.471945,http://businfo.santa-clarita.com/RTT/Public/RoutePositionET.aspx?PlatformTag=691
692,18098,"Whites Canyon Rd & Canyon Crest Dr",34.432315,-118.471842,http://businfo.santa-clarita.com/RTT/Public/RoutePositionET.aspx?PlatformTag=692
693,14919,"Whites Canyon Rd & Canyon Crest Dr",34.431080,-118.469384,http://businfo.santa-clarita.com/RTT/Public/RoutePositionET.aspx?PlatformTag=693
694,18046,"Whites Canyon Rd & Canyon Crest Dr",34.431207,-118.469094,http://businfo.santa-clarita.com/RTT/Public/RoutePositionET.aspx?PlatformTag=694
695,11494,"Via Princessa & May Wy",34.409619,-118.478395,http://businfo.santa-clarita.com/RTT/Public/RoutePositionET.aspx?PlatformTag=695
696,16605,"Soledad Canyon Rd & Camp Plenty Rd",34.415572,-118.475110,http://businfo.santa-clarita.com/RTT/Public/RoutePositionET.aspx?PlatformTag=696
697,16084,"Soledad Canyon Rd & Whites Canyon Rd",34.415845,-118.473300,http://businfo.santa-clarita.com/RTT/Public/RoutePositionET.aspx?PlatformTag=697
698,19087,"Soledad Canyon Rd & Hidaway Ave",34.415584,-118.470894,http://businfo.santa-clarita.com/RTT/Public/RoutePositionET.aspx?PlatformTag=698
699,18385,"Whites Canyon Rd & Soledad Canyon Rd",34.416998,-118.472034,http://businfo.santa-clarita.com/RTT/Public/RoutePositionET.aspx?PlatformTag=699
700,18371,"Whites Canyon Rd & Stillmore St",34.418714,-118.472036,http://businfo.santa-clarita.com/RTT/Public/RoutePositionET.aspx?PlatformTag=700
701,15020,"Whites Canyon Rd & Stillmore St",34.418751,-118.472306,http://businfo.santa-clarita.com/RTT/Public/RoutePositionET.aspx?PlatformTag=701
702,15374,"Whites Canyon Rd & Pleasantdale St",34.421037,-118.472326,http://businfo.santa-clarita.com/RTT/Public/RoutePositionET.aspx?PlatformTag=702
703,18363,"Whites Canyon Rd & Pleasantdale St",34.421163,-118.472052,http://businfo.santa-clarita.com/RTT/Public/RoutePositionET.aspx?PlatformTag=703
704,15388,"Whites Canyon Rd & Delight St",34.423196,-118.472302,http://businfo.santa-clarita.com/RTT/Public/RoutePositionET.aspx?PlatformTag=704
705,18359,"Whites Canyon Rd & Delight St",34.424068,-118.471774,http://businfo.santa-clarita.com/RTT/Public/RoutePositionET.aspx?PlatformTag=705
706,15390,"Whites Canyon Rd & Ranier St",34.425595,-118.470940,http://businfo.santa-clarita.com/RTT/Public/RoutePositionET.aspx?PlatformTag=706
707,18014,"Whites Canyon Rd & Ranier St",34.426081,-118.469776,http://businfo.santa-clarita.com/RTT/Public/RoutePositionET.aspx?PlatformTag=707
708,14957,"Whites Canyon Rd & Nadal St",34.427096,-118.468600,http://businfo.santa-clarita.com/RTT/Public/RoutePositionET.aspx?PlatformTag=708
709,18033,"Whites Canyon Rd & Nadal St",34.427949,-118.467717,http://businfo.santa-clarita.com/RTT/Public/RoutePositionET.aspx?PlatformTag=709
710,15049,"Sierra Hwy & Canyon Prk Blvd",34.410814,-118.458708,http://businfo.santa-clarita.com/RTT/Public/RoutePositionET.aspx?PlatformTag=710
711,17783,"Sierra Hwy & Canyon Prk Blvd",34.410824,-118.458380,http://businfo.santa-clarita.com/RTT/Public/RoutePositionET.aspx?PlatformTag=711
712,18392,"Soledad Canyon Rd & Crossglade Ave",34.415847,-118.466907,http://businfo.santa-clarita.com/RTT/Public/RoutePositionET.aspx?PlatformTag=712
713,15008,"Soledad Canyon Rd & Crossglade Ave",34.415643,-118.466103,http://businfo.santa-clarita.com/RTT/Public/RoutePositionET.aspx?PlatformTag=713
714,18022,"Soledad Canyon Rd & Homyr Pl",34.415956,-118.464601,http://businfo.santa-clarita.com/RTT/Public/RoutePositionET.aspx?PlatformTag=714
715,15595,"Soledad Canyon Rd & Luther Dr",34.415743,-118.462656,http://businfo.santa-clarita.com/RTT/Public/RoutePositionET.aspx?PlatformTag=715
716,17796,"Soledad Canyon Rd & Shangrila Dr",34.416154,-118.459231,http://businfo.santa-clarita.com/RTT/Public/RoutePositionET.aspx?PlatformTag=716
717,15012,"Soledad Canyon Rd & Shangrila Dr",34.415909,-118.458842,http://businfo.santa-clarita.com/RTT/Public/RoutePositionET.aspx?PlatformTag=717
718,19535,"Soledad Canyon Rd & Sierra Hwy",34.416440,-118.457167,http://businfo.santa-clarita.com/RTT/Public/RoutePositionET.aspx?PlatformTag=718
719,15031,"Sierra Hwy & Soledad Canyon Rd",34.415724,-118.456382,http://businfo.santa-clarita.com/RTT/Public/RoutePositionET.aspx?PlatformTag=719
720,19232,"Soledad Canyon Rd & Sierra Hwy",34.416347,-118.455336,http://businfo.santa-clarita.com/RTT/Public/RoutePositionET.aspx?PlatformTag=720
721,16111,"Sierra Hwy & Soledad Canyon Rd",34.417193,-118.455343,http://businfo.santa-clarita.com/RTT/Public/RoutePositionET.aspx?PlatformTag=721
722,16078,"Soledad Canyon Rd & Solamint Rd",34.416612,-118.453004,http://businfo.santa-clarita.com/RTT/Public/RoutePositionET.aspx?PlatformTag=722
723,15860,"Soledad Canyon Rd & Solamint Rd",34.416342,-118.451942,http://businfo.santa-clarita.com/RTT/Public/RoutePositionET.aspx?PlatformTag=723
724,15894,"Sierra Hwy & Racquet Ct",34.420522,-118.453810,http://businfo.santa-clarita.com/RTT/Public/RoutePositionET.aspx?PlatformTag=724
725,18453,"Sierra Hwy & Sarabande Ln",34.422915,-118.451408,http://businfo.santa-clarita.com/RTT/Public/RoutePositionET.aspx?PlatformTag=725
726,17662,"Sierra Hwy & Mirror Wy",34.423571,-118.451095,http://businfo.santa-clarita.com/RTT/Public/RoutePositionET.aspx?PlatformTag=726
727,18804,"Sierra Hwy & Mirror Wy",34.423983,-118.450238,http://businfo.santa-clarita.com/RTT/Public/RoutePositionET.aspx?PlatformTag=727
728,15873,"Sierra Hwy & Adon Ave",34.425282,-118.449203,http://businfo.santa-clarita.com/RTT/Public/RoutePositionET.aspx?PlatformTag=728
729,,"Sierra Hwy & Adon Ave",34.425567,-118.448507,http://businfo.santa-clarita.com/RTT/Public/RoutePositionET.aspx?PlatformTag=729
730,17572,"Sierra Hwy & Scherzinger Ln",34.431078,-118.442457,http://businfo.santa-clarita.com/RTT/Public/RoutePositionET.aspx?PlatformTag=730
731,18469,"Sierra Hwy & Linda Vista St",34.433493,-118.438535,http://businfo.santa-clarita.com/RTT/Public/RoutePositionET.aspx?PlatformTag=731
732,17380,"Sierra Hwy & Linda Vista St",34.433577,-118.437480,http://businfo.santa-clarita.com/RTT/Public/RoutePositionET.aspx?PlatformTag=732
733,18482,"Sierra Hwy & Linda Vista St",34.435789,-118.433864,http://businfo.santa-clarita.com/RTT/Public/RoutePositionET.aspx?PlatformTag=733
735,18495,"Sierra Hwy & Fitch Ave",34.446212,-118.427214,http://businfo.santa-clarita.com/RTT/Public/RoutePositionET.aspx?PlatformTag=735
736,15887,"Sierra Hwy & Sand Canyon Rd",34.449529,-118.424028,http://businfo.santa-clarita.com/RTT/Public/RoutePositionET.aspx?PlatformTag=736
737,17379,"Sierra Hwy & Garyford Rd",34.450568,-118.422817,http://businfo.santa-clarita.com/RTT/Public/RoutePositionET.aspx?PlatformTag=737
738,17351,"Sierra Hwy & Vasquez Canyon Rd",34.454744,-118.420334,http://businfo.santa-clarita.com/RTT/Public/RoutePositionET.aspx?PlatformTag=738
739,16148,"Shadow Pines Blvd & Grandifloras Rd",34.443180,-118.392099,http://businfo.santa-clarita.com/RTT/Public/RoutePositionET.aspx?PlatformTag=739
740,17847,"Mammoth Ln & Catskills Ct",34.439347,-118.386044,http://businfo.santa-clarita.com/RTT/Public/RoutePositionET.aspx?PlatformTag=740
741,17834,"Mammoth Ln & Pinnacle Ct",34.437144,-118.388468,http://businfo.santa-clarita.com/RTT/Public/RoutePositionET.aspx?PlatformTag=741
742,17000,"Begonias Ln & Shadow Pines Blvd",34.437135,-118.393330,http://businfo.santa-clarita.com/RTT/Public/RoutePositionET.aspx?PlatformTag=742
743,15841,"Shadow Pines Blvd & Begonias Ln",34.436854,-118.393113,http://businfo.santa-clarita.com/RTT/Public/RoutePositionET.aspx?PlatformTag=743
744,11058,"Shadow Pines Blvd & Soledad Canyon Rd",34.435526,-118.392287,http://businfo.santa-clarita.com/RTT/Public/RoutePositionET.aspx?PlatformTag=744
745,16176,"Soledad Canyon Rd & Shadow Pines Blvd",34.434824,-118.392892,http://businfo.santa-clarita.com/RTT/Public/RoutePositionET.aspx?PlatformTag=745
746,16182,"Soledad Canyon Rd & Raquel Ln",34.433488,-118.394781,http://businfo.santa-clarita.com/RTT/Public/RoutePositionET.aspx?PlatformTag=746
747,17806,"Soledad Canyon Rd & Raquel Ln",34.433477,-118.394358,http://businfo.santa-clarita.com/RTT/Public/RoutePositionET.aspx?PlatformTag=747
748,15856,"Soledad Canyon Rd & River Cir",34.416329,-118.447032,http://businfo.santa-clarita.com/RTT/Public/RoutePositionET.aspx?PlatformTag=748
749,16066,"Soledad Canyon Rd & Galeton Rd",34.416618,-118.447019,http://businfo.santa-clarita.com/RTT/Public/RoutePositionET.aspx?PlatformTag=749
750,15802,"Soledad Canyon Rd & Canyon Country Prk",34.417724,-118.441289,http://businfo.santa-clarita.com/RTT/Public/RoutePositionET.aspx?PlatformTag=750
751,17063,"Soledad Canyon Rd & Deep Creek Dr",34.420162,-118.436539,http://businfo.santa-clarita.com/RTT/Public/RoutePositionET.aspx?PlatformTag=751
752,16803,"Soledad Canyon Rd & Deep Creek Dr",34.420074,-118.435855,http://businfo.santa-clarita.com/RTT/Public/RoutePositionET.aspx?PlatformTag=752
753,16826,"Soledad Canyon Rd & Anne Freda St",34.421561,-118.433598,http://businfo.santa-clarita.com/RTT/Public/RoutePositionET.aspx?PlatformTag=753
754,17059,"Soledad Canyon Rd & Anne Freda St",34.422459,-118.433432,http://businfo.santa-clarita.com/RTT/Public/RoutePositionET.aspx?PlatformTag=754
755,16842,"Soledad Canyon Rd & Miss Grace Dr",34.424408,-118.431948,http://businfo.santa-clarita.com/RTT/Public/RoutePositionET.aspx?PlatformTag=755
756,17085,"Soledad Canyon Rd & Gailxy Ave",34.426240,-118.429376,http://businfo.santa-clarita.com/RTT/Public/RoutePositionET.aspx?PlatformTag=756
757,16835,"Soledad Canyon Rd & Solon Ave",34.426364,-118.427381,http://businfo.santa-clarita.com/RTT/Public/RoutePositionET.aspx?PlatformTag=757
758,19221,"Soledad Canyon Rd & Kenroy Ave",34.426674,-118.425748,http://businfo.santa-clarita.com/RTT/Public/RoutePositionET.aspx?PlatformTag=758
759,17092,"Soledad Canyon Rd & Kenroy Ave",34.427013,-118.425148,http://businfo.santa-clarita.com/RTT/Public/RoutePositionET.aspx?PlatformTag=759
760,17037,"Soledad Canyon Rd & Oak Spring Canyon Rd",34.428289,-118.415585,http://businfo.santa-clarita.com/RTT/Public/RoutePositionET.aspx?PlatformTag=760
761,11089,"Soledad Canyon Rd & Oak Spring Canyon Rd",34.428050,-118.414903,http://businfo.santa-clarita.com/RTT/Public/RoutePositionET.aspx?PlatformTag=761
762,17028,"Soledad Canyon Rd & Rue Entree",34.428210,-118.411824,http://businfo.santa-clarita.com/RTT/Public/RoutePositionET.aspx?PlatformTag=762
763,11091,"Soledad Canyon Rd & Rue Entree",34.427952,-118.411202,http://businfo.santa-clarita.com/RTT/Public/RoutePositionET.aspx?PlatformTag=763
764,17044,"Soledad Canyon Rd & Flowerpark Dr",34.428421,-118.406824,http://businfo.santa-clarita.com/RTT/Public/RoutePositionET.aspx?PlatformTag=764
765,11070,"Soledad Canyon Rd & Flowerpark Dr",34.428306,-118.406126,http://businfo.santa-clarita.com/RTT/Public/RoutePositionET.aspx?PlatformTag=765
766,16169,"Soledad Canyon Rd & Poppy Meadow St",34.430672,-118.400075,http://businfo.santa-clarita.com/RTT/Public/RoutePositionET.aspx?PlatformTag=766
767,11062,"Soledad Canyon Rd",34.430735,-118.399333,http://businfo.santa-clarita.com/RTT/Public/RoutePositionET.aspx?PlatformTag=767
769,14271,"COC",34.405800,-118.567800,http://businfo.santa-clarita.com/RTT/Public/RoutePositionET.aspx?PlatformTag=769
771,,"Rockwell Canyon Rd & Valencia Blvd",34.408359,-118.568000,http://businfo.santa-clarita.com/RTT/Public/RoutePositionET.aspx?PlatformTag=771
772,16452,"Orchard Village Rd & Mill Valley Rd",34.392524,-118.549916,http://businfo.santa-clarita.com/RTT/Public/RoutePositionET.aspx?PlatformTag=772
774,11129,"Railroad Ave & Market St",34.379125,-118.527363,http://businfo.santa-clarita.com/RTT/Public/RoutePositionET.aspx?PlatformTag=774
778,15970,"Poe Pky & Whitman St",34.382458,-118.589100,http://businfo.santa-clarita.com/RTT/Public/RoutePositionET.aspx?PlatformTag=778
779,14620,"Chiquito Canyon Rd & Taylor St",34.443413,-118.657283,http://businfo.santa-clarita.com/RTT/Public/RoutePositionET.aspx?PlatformTag=779
780,19655,"Ridge Route Rd & Castaic Rd",34.491024,-118.617122,http://businfo.santa-clarita.com/RTT/Public/RoutePositionET.aspx?PlatformTag=780
781,19664,"Ave Scott & Anza Dr",34.433827,-118.571565,http://businfo.santa-clarita.com/RTT/Public/RoutePositionET.aspx?PlatformTag=781
782,13347,"Beaumont St & Hillsborough Pky",34.439470,-118.545657,http://businfo.santa-clarita.com/RTT/Public/RoutePositionET.aspx?PlatformTag=782
783,17627,"Hillsborough Pky & Colebrook Pl",34.433629,-118.545465,http://businfo.santa-clarita.com/RTT/Public/RoutePositionET.aspx?PlatformTag=783
785,10602,"Seco Canyon Rd & Decoro Dr",34.442112,-118.534334,http://businfo.santa-clarita.com/RTT/Public/RoutePositionET.aspx?PlatformTag=785
786,19722,"Centurion Wy & Caraway Ln",34.441995,-118.516703,http://businfo.santa-clarita.com/RTT/Public/RoutePositionET.aspx?PlatformTag=786
788,,"Cinema Dr & Academy Pl",34.419673,-118.545049,http://businfo.santa-clarita.com/RTT/Public/RoutePositionET.aspx?PlatformTag=788
789,15728,"Kavenaugh Ln & Bates Pl",34.394033,-118.592947,http://businfo.santa-clarita.com/RTT/Public/RoutePositionET.aspx?PlatformTag=789
790,,"Hob Ct & Pin Ct",34.460021,-118.492638,http://businfo.santa-clarita.com/RTT/Public/RoutePositionET.aspx?PlatformTag=790
791,,"Sierra Hwy & Sierra Cross Ave",34.428839,-118.444896,http://businfo.santa-clarita.com/RTT/Public/RoutePositionET.aspx?PlatformTag=791
792,,"Sierra Hwy & Hillfield Ln",34.428476,-118.445665,http://businfo.santa-clarita.com/RTT/Public/RoutePositionET.aspx?PlatformTag=792
794,,"Sierra Hwy & Flying Tiger Dr",34.408061,-118.461427,http://businfo.santa-clarita.com/RTT/Public/RoutePositionET.aspx?PlatformTag=794
797,,"Victory Blvd & Topanga Canyon Blvd",34.186923,-118.605385,http://businfo.santa-clarita.com/RTT/Public/RoutePositionET.aspx?PlatformTag=797
798,,"Victory Blvd",34.188450,-118.598155,http://businfo.santa-clarita.com/RTT/Public/RoutePositionET.aspx?PlatformTag=798
799,14302,"De Soto Ave & Burbank Blvd",34.173541,-118.588393,http://businfo.santa-clarita.com/RTT/Public/RoutePositionET.aspx?PlatformTag=799
801,19751,"Glendon Ave & Wilshire Blvd",34.059181,-118.442565,http://businfo.santa-clarita.com/RTT/Public/RoutePositionET.aspx?PlatformTag=801
802,,"Nth Main St & Sth Main St",34.052537,-118.242973,http://businfo.santa-clarita.com/RTT/Public/RoutePositionET.aspx?PlatformTag=802
803,19601,"Gateway Plz",34.054895,-118.233323,http://businfo.santa-clarita.com/RTT/Public/RoutePositionET.aspx?PlatformTag=803
807,19780,"10th St West & West Ave J-2",34.688936,-118.148154,http://businfo.santa-clarita.com/RTT/Public/RoutePositionET.aspx?PlatformTag=807
808,19798,"10th St West & Marketplace Dr",34.597799,-118.147847,http://businfo.santa-clarita.com/RTT/Public/RoutePositionET.aspx?PlatformTag=808
809,19767,"Metrolink Sta & Sierra Hwy",34.497585,-118.118562,http://businfo.santa-clarita.com/RTT/Public/RoutePositionET.aspx?PlatformTag=809
815,,"Bowman High School",34.411194,-118.511901,http://businfo.santa-clarita.com/RTT/Public/RoutePositionET.aspx?PlatformTag=815
816,,"Bowman High School",34.411149,-118.511918,http://businfo.santa-clarita.com/RTT/Public/RoutePositionET.aspx?PlatformTag=816
820,,"Old Rock Rd & Valencia Blvd",34.400819,-118.596326,http://businfo.santa-clarita.com/RTT/Public/RoutePositionET.aspx?PlatformTag=820
823,,"Victory Blvd & Topanga Canyon Blvd",34.186983,-118.605428,http://businfo.santa-clarita.com/RTT/Public/RoutePositionET.aspx?PlatformTag=823
826,,"Woodlake Ave & Cohasset St",34.206616,-118.632120,http://businfo.santa-clarita.com/RTT/Public/RoutePositionET.aspx?PlatformTag=826
829,,"7th St & Spring St",34.044618,-118.252384,http://businfo.santa-clarita.com/RTT/Public/RoutePositionET.aspx?PlatformTag=829
830,,"8th and Spring St",34.043363,-118.254065,http://businfo.santa-clarita.com/RTT/Public/RoutePositionET.aspx?PlatformTag=830
831,,"Sth Flower St & West 5th St",34.051828,-118.255951,http://businfo.santa-clarita.com/RTT/Public/RoutePositionET.aspx?PlatformTag=831
832,,"Devonshire St & Oakdale Ave",34.257280,-118.566820,http://businfo.santa-clarita.com/RTT/Public/RoutePositionET.aspx?PlatformTag=832
833,19492,"North Hollywood Terminus",34.168963,-118.374499,http://businfo.santa-clarita.com/RTT/Public/RoutePositionET.aspx?PlatformTag=833
834,15255,"Lankershim Blvd & Chandler Blvd",34.168696,-118.376789,http://businfo.santa-clarita.com/RTT/Public/RoutePositionET.aspx?PlatformTag=834
840,11996,"Sth Figueroa St & West 5th St",34.052486,-118.256895,http://businfo.santa-clarita.com/RTT/Public/RoutePositionET.aspx?PlatformTag=840
841,,"Senior Center",34.376173,-118.529884,http://businfo.santa-clarita.com/RTT/Public/RoutePositionET.aspx?PlatformTag=841
844,19444,"McBean MRTC",34.414000,-118.561990,http://businfo.santa-clarita.com/RTT/Public/RoutePositionET.aspx?PlatformTag=844
846,12010,"Nth Spring St & West Temple St",34.055399,-118.242175,http://businfo.santa-clarita.com/RTT/Public/RoutePositionET.aspx?PlatformTag=846
847,,"Rockwell Canyon Rd",34.404492,-118.567710,http://businfo.santa-clarita.com/RTT/Public/RoutePositionET.aspx?PlatformTag=847
850,,"Centre Pointe Pky & Centre Point Pky",34.411644,-118.513431,http://businfo.santa-clarita.com/RTT/Public/RoutePositionET.aspx?PlatformTag=850
854,,"COCCC",34.435634,-118.429119,http://businfo.santa-clarita.com/RTT/Public/RoutePositionET.aspx?PlatformTag=854
855,11833,"West 8th St & Sth Grand Ave",34.045916,-118.257948,http://businfo.santa-clarita.com/RTT/Public/RoutePositionET.aspx?PlatformTag=855
